address	pmid	latitude	longitude
School of Life Science and Technology, Tokyo Institute of Technology, Tokyo, Japan.	38782570	35.639273	139.29799
Research Center for Integrative Evolutionary Science, The Graduate University for Advanced Studies, SOKENDAI, Kanagawa, Japan.	38782570	NA	NA
Tanzania Fisheries Research Institute (TAFIRI), Dar es Salaam, Tanzania.	38782570	-6.666502	 39.21259
Tanzania Fisheries Research Institute (TAFIRI), Mwanza, Tanzania.	38782570	-2.517883	32.89910
Department of Dermatology, Medical University of Vienna, Austria.	38781495	48.209206	16.37278
Clinic for Poultry and Fish Medicine, Department for Farm Animals and Veterinary Public Health, University of Veterinary Medicine Vienna, Austria.	38781495	48.209206	16.37278
Simon F. S. Li Marine Science Laboratory, School of Life Sciences and State Key Laboratory of Agrobiotechnology, The Chinese University of Hong Kong, Shatin, Hong Kong SAR.	38776415	22.42223	114.214455
School of Earth and Environmental Sciences and Centre for Exoplanet Science, University of St Andrews, Bute Building, Queen's Terrace, KY16 9TS, UK.	38776415	56.33805	 -2.794175
Earth and Environmental Sciences Programme, The Chinese University of Hong Kong, Shatin, Hong Kong SAR.	38776415	22.41952	114.206061
Institute of Environment, Energy and Sustainability, The Chinese University of Hong Kong, Shatin, Hong Kong SAR.	38776415	22.41952	114.20606
Department of Ecology and Evolution, Laufer Center for Physical and Quantitative Biology, Stony Brook University, 650 Life Sciences, Stony Brook, NY 11794-4254.	38768245	40.90592	-73.11368
State Key Laboratory of Systematic and Evolutionary Botany, Institute of Botany, Chinese Academy of Sciences, Beijing 100093, China.	38768215	39.90750	116.39723
China National Botanical Garden, Beijing 100093, China.	38768215	39.90750	116.3972
University of Chinese Academy of Sciences, Beijing 100049, China.	38768215	39.90750	116.3972
State Key Laboratory of Agricultural Genomics, Key Laboratory of Genomics, Ministry of Agriculture, BGI Research, Shenzhen 518083, China.	38768215	22.54554	114.0683
Department of Mathematics, University of Bergen, Bergen, Norway.	38758976	60.38805	 5.331858
School of Life Sciences, University of Warwick, Coventry, UK.	38758976	52.37375	-1.552792
Computational Biology Unit, University of Bergen, Bergen, Norway.	38758976	60.38805	 5.331858
State Key Laboratory of Cotton Bio-breeding and Integrated, Institute of Cotton Research, Chinese Academy of Agricultural Sciences, Anyang, China 455000.	38758089	36.09600	114.38278
Shenzhen Branch, Guangdong Laboratory of Lingnan Modern Agriculture, Key Laboratory of Synthetic Biology, Ministry of Agriculture and Rural Affairs, Agricultural Genomics Institute at Shenzhen, Chinese Academy of Agricultural Sciences, Shenzhen, China 518120.	38758089	NA	NA
Department of Ecology, Evolution and Organismal Biology, Iowa State University, Ames, Iowa, USA 50011.	38758089	42.02525	-93.65087
Department of Biological Science, Florida State University, Tallahassee, Florida, USA 32306.	38758089	30.44165	-84.30294
Department of Statistics, Florida State University, Tallahassee, Florida, USA 32306.	38758089	30.44165	-84.30294
Dept of Mathematics, Florida Gulf Coast University, Florida, USA 33965.	38758089	26.46161	-81.77579
Department of Ecology & Evolutionary Biology, University of Arizona, Tucson, AZ, USA 85721.	38758089	32.23372	-110.95071
Department of Molecular & Cellular Biology, University of Arizona, Tucson, AZ, USA 85721.	38758089	32.23372	-110.95071
Department of Molecular Genetics, Ohio State University, Columbus, Ohio, USA 43210.	38758089	40.00061	 -83.01796
Zhengzhou Research Base, State Key Laboratory of Cotton Biology, School of Agricultural Sciences, Zhengzhou University, Zhengzhou, China 450000.	38758089	34.75778	 113.6486
Forage Seed and Cereal Research Unit, USDA/Agricultural Research Service, Corvallis, Oregon, USA 97331.	38758089	44.56404	-123.2814
Crop Germplasm Research Unit, USDA/Agricultural Research Service, College Station, Texas, USA 77845.	38758089	30.56954	 -96.2871
Area of Ecology and Biodiversity, School of Biological Sciences, the University of Hong Kong, Hong Kong, SAR, People's Republic of  China.	38743590	 28.20000	 87.7000
School of Biological Sciences and Swire Institute of Marine Science, Faculty of Science, the University of Hong Kong, Hong Kong, SAR, People's Republic of  China.	38743590	 28.20000	 87.7000
School of Natural Sciences, Faculty of Science and Engineering, Macquarie University, Sydney, Australia.	38743590	-33.77199	151.1106
Division of Ecology and Evolution, Research School of Biology, Australian National University, Canberra, Australia.	38743590	-35.28294	149.118759
Division of Evolutionary Biology, Faculty of Biology, Ludwig Maximilian University of Munich, 82152 Planegg-Martinsried, Germany.	38743589	 48.10892	 11.451926
Evolutionary Biology & Ecology, Faculty of Biology, University of Freiburg, 79104 Freiburg, Germany.	38743589	 48.00746	  7.855179
Department of Bioinformatics and Genetics, Swedish Museum of Natural History, 11418 Stockholm, Sweden.	38743589	59.37070	 18.05535
Division of Systematics and Evolution, Department of Zoology, Stockholm University, 11418 Stockholm, Sweden.	38743589	59.37070	 18.05535
Department of Biology, Boston University, Boston, MA 02215.	38743589	42.34593	-71.10250
Department of Biological Sciences, The Pennsylvania State University, State College, Pennsylvania, USA.	38736374	40.80454	-77.85853
Department of Biology, Berry College, Rome, Georgia, USA.	38736374	34.26046	-85.18062
Department of Vertebrate Zoology, National Museum of Natural History, Smithsonian Institution, Washington DC, USA.	38736374	38.89122	-77.02609
Department of Herpetology, California Academy of Sciences, San Francisco, California, USA.	38736374	37.77005	-122.4663591
Department of Biology, Amphibian and Reptile Diversity Research Center, The University of Texas at Arlington, Arlington, TX, USA.	38736374	32.73559	 -97.1071100
Department of Life Sciences, Natural History Museum, London, UK.	38736374	51.49620	  -0.1764223
Department of Biology & Centre for Vision Research, York University, Toronto, Ontario, CAN.	38736374	43.66250	-79.40117
State Key Laboratory of Subtropical Silviculture, College of Forestry and Biotechnology, Zhejiang A&F University, Hangzhou 311300, China.	38723179	30.06517	102.19527
Zhejiang International Science and Technology Cooperation Base for Plant Germplasm Resources Conservation and Utilization, Zhejiang A&F University, Hangzhou 311300, China.	38723179	30.06517	102.19527
Environment and Sustainability Institute, Penryn Campus, Penryn TR10 9FE, UK.	38717941	50.17055	-5.125645
Naturalis Biodiversity Center, P.O. Box 9517, 2300 RA Leiden, The Netherlands.	38717941	52.16490	 4.473367
Institute of Biology Leiden, Leiden University, 2333 BE Leiden, The Netherlands.	38717941	52.16743	 4.466599
Organisms and Ecosystems, Earlham Institute, Norwich NR4 7UZ, UK.	38717941	52.62176	 1.218942
Gut Microbes and Health, Quadram Institute, Norwich NR4 7UQ, UK.	38717941	52.61982	 1.218789
European Centre for Environment and Human Health, Penryn Campus, Penryn TR10 9FE, UK.	38717941	50.17055	-5.125645
Department of Biology, Carleton University, Ottawa, ON K1S 5B6, Canada.	38709811	45.38797	-75.69841
Department of Biology, University of Ottawa, Ottawa, ON K1N 6N5, Canada.	38709811	45.42071	-75.68148
Department of Biology, McGill University, Montreal, QC H3A 1B1, Canada.	38709811	45.50262	-73.58101
Institute of Ecology and Evolution, University of Bern, Bern, Switzerland.	38709811	46.94800	 7.448130
Division of Theoretical Ecology and Evolution, Swiss Institute of Bioinformatics, Lausanne, Switzerland.	38709811	46.51963	 6.632128
Evolutionary Dynamics Group, Gulbenkian Science Institute, Oeiras, Portugal.	38709811	38.69741	-9.308310
Department of Ecology, Environment and Plant Sciences, Science for Life Laboratory, Stockholm University, Stockholm, Sweden.	38709782	59.33279	18.06449
Department of Immunology, Genetics and Pathology, Uppsala Genome Center, Science for Life Laboratory, Uppsala University, Uppsala, Sweden.	38709782	59.85813	17.64462
Department of Medical Biochemistry and Microbiology, Uppsala University, National Bioinformatics Infrastructure Sweden (NBIS), Science for Life Laboratory, Uppsala University, Uppsala, Sweden.	38709782	59.85813	17.64462
Department of Genetics, University of Granada, Granada, Spain.	38709782	37.17648	 -3.597937
Department of Plant Biology and Ecology, University of Seville, Seville, Spain.	38709782	37.38264	 -5.996295
Department of Biology, Duke University, Box 90338, Durham, NC 27708-0338, USA.	38696269	35.99931	-78.934772
Rudolf Peierls Centre for Theoretical Physics, University of Oxford, Oxford, UK.	38693911	51.75463	-1.241153
Faculty of Environment, Science and Economy, University of Exeter, Exeter, UK.	38693911	50.72161	-3.510171
Department of Biological Sciences, University of Bergen, Bergen, Norway.	38679468	60.38805	 5.331858
Faculty of Biological Sciences, Friedrich Schiller University, Institute for Zoology and Evolutionary Research, Jena, Germany.	38679468	 50.92696	 11.58696
Department of Ecology, Evolution and Behavior, Alexander Silberman Institute of Life Sciences, The Hebrew University of Jerusalem, 9190401 Jerusalem, Israel.	38676945	-33.46501	-70.71270
Institut für Populationsgenetik, University of Veterinary Medicine, Veterinärplatz 1, Vienna 1210, Austria.	38667829	 48.25444	 16.43179
Vienna Graduate School of Population Genetics, Vienna, Austria.	38667829	48.20921	16.372778
Centre for Biological Diversity, School of Biology, University of St Andrews, Fife KY16 9TH, UK.	38667829	56.33758	-2.791642
Groningen Institute of Archaeology, University of Groningen, Groningen, The Netherlands.	38662789	53.21506	 6.554810
Smurfit Institute of Genetics, Trinity College Dublin, Dublin D02 PN40, Ireland.	38662789	53.34409	 -6.258739
Palaeogenetics Group, Institute of Organismic and Molecular Evolution (iOME), Johannes Gutenberg-University Mainz, 55099 Mainz, Germany.	38662789	49.99511	  8.267389
Key Laboratory of Animal Genetics, Breeding and Reproduction of Shaanxi Province, College of Animal Science and Technology, Northwest A&F University, Yangling 712100, China.	38662789	34.25667	108.078330
Institute for Prehistory and Protohistory, University of Cologne, 50931 Cologne, Germany.	38662789	50.93272	6.916607
LEIZA, Archaeological Research Centre and Museum for Human Behavioural Evolution, Schloss Monrepos, D - 56567 Neuwied, Germany.	38662789	50.48331	7.465595
Animal Breeding and Genomics, Wageningen University and Research, Wageningen, The Netherlands.	38662789	51.98507	5.664010
Laboratory of Genetics, Wageningen University & Research, the Netherlands.	38652808	51.98507	  5.66401
Department of Veterinary Sciences, Faculty of Agriculture, University of Miyazaki, Miyazaki, Japan.	38649162	31.90772	131.42020
Mouse Genomics Resource Laboratory, National Institute of Genetics, Mishima, Japan.	38649162	36.65523	139.27149
Department of Genetics, SOKENDAI (The Graduate University for Advanced Studies), Shizuoka, Japan.	38649162	36.65523	139.2715
Curatorial Division, Museum of Natural and Environmental History, Shizuoka, Japan.	38649162	34.95931	138.4366
Present address: College of Bioresource Sciences, Nihon University, Fujisawa, Japan.	38649162	35.38130	139.4704
Comparative Genomics Laboratory, National Institute of Genetics, Shizuoka, Japan.	38649162	36.65523	139.2715
Department of Applied Biological Chemistry, Graduate School of Agricultural and Life Sciences, The University of Tokyo, Tokyo, Japan.	38649162	35.68946	139.6917
Wildlife Research Center, Kyoto University, Kyoto, Japan.	38649162	35.03344	135.7260
Present address: Biosphere Informatics Laboratory, Department of Social Informatics, Graduate School of Informatics, Kyoto, Japan.	38649162	36.655227	139.2714950
Livestock and Poultry Research Centre, College of Basic and Applied Sciences, University of Ghana, Accra, Ghana.	38649162	 5.554723	 -0.2209723
Department of Animal Science, College of Basic and Applied Sciences, University of Ghana, Accra, Ghana.	38649162	 5.554723	 -0.2209723
Theoretical Biology and Biophysics, Los Alamos National Laboratory, Los Alamos NM, USA.	38648521	35.88194	-106.30772
Center for the Study of Complex Systems and Departments of Ecology & Evolutionary Biology and Mathematics, University of Michigan, Ann Arbor MI, USA.	38648521	42.28142	 -83.74848
Santa Fe Institute, 1399 Hyde Park Road, Santa Fe NM, USA.	38648521	35.69872	-105.90912
Genetics Graduate Interdisciplinary Program, University of Arizona, Tucson, AZ 85721, USA.	38636507	32.23372	-110.95071
Department of Molecular & Cellular Biology, University of Arizona, Tucson, AZ 85721, USA.	38636507	32.23372	-110.95071
GeoBio-Center, Ludwig-Maximilians-Universität München, Munich 80333, Germany.	38630635	48.14381	  11.56266
Department of Earth and Environmental Sciences, Paleontology & Geobiology, Ludwig-Maximilians-Universität München, Munich 80333, Germany.	38630635	48.14763	  11.56805
Department of Molecular Biosciences, The Wenner-Gren Institute, Stockholm University, Stockholm, Sweden.	38606905	59.33279	  18.06449
Department of Biological Sciences, University of the Pacific, Stockton, CA, USA.	38606905	37.95754	-121.29245
Louvain Institute of Biomolecular Science and Technology, Université catholique de Louvain, Louvain-la-Neuve, Belgium.	38606905	50.88217	   4.705906
Department of Biology, Sonoma State University, Rohnert Park, CA, USA.	38606905	38.34207	-122.677633
Biomedical Research Centre, Norwich Medical School, University of East Anglia, Norwich, UK.	38606905	52.62889	   1.293330
Department of Ecology and Evolutionary Biology, University of Toronto, Toronto, Canada.	38606901	43.66300	-79.39355
Department of Plant Developmental Genetics, Institute of Biophysics of the Czech Academy of Sciences, Brno, Czech Republic.	38606901	49.19205	 16.61319
National Centre for Biomolecular Research, Faculty of Science, Masaryk University, Brno, Czech Republic.	38606901	49.19205	 16.61319
Department of Biology, Queen's University, Kingston, Canada.	38606901	44.22743	 -76.49108
Centre for Analysis of Genome Evolution and Function, University of Toronto, Toronto, Canada.	38606901	43.66300	 -79.39355
School of Biological Sciences, University of California San Diego, La Jolla, CA, USA.	38586942	32.84199	-117.27302
Department of Chemistry and Biochemistry, University of California San Diego, La Jolla, CA, USA.	38586942	32.84199	-117.27302
Department of Cellular and Molecular Medicine, University of California San Diego, La Jolla, CA, USA.	38586942	32.84199	-117.27302
Bioinformatics Research Center, Aarhus University, Denmark.	38577958	56.16871	  10.20243
Centre for Ecology and Conservation, University of Exeter, Penryn Campus, Cornwall TR10 9FE, UK.	38577785	50.17055	-5.125645
Laboratory of Evolutionary Genetics, Institute of Biology, University of Neuchâtel, 2000 Neuchâtel, Switzerland.	38577785	46.99204	 6.930751
Institute of Evolutionary Biology, University of Edinburgh, Edinburgh EH9 3FL, UK.	38577785	55.92395	-3.173114
Department of Biology and Centre for Vision Research, York University, Toronto, Ontario, Canada.	38573520	43.66250	-79.40117
Department of Vertebrate Zoology, National Museum of Natural History, Smithsonian Institution, Washington, DC, USA.	38573520	38.89122	-77.02609
Department of Biology, Amphibian and Reptile Diversity Research Center, The University of Texas at Arlington, Arlington, TX, USA.	38573520	32.73559	-97.10711
Natural History Museum, London, UK.	38573520	51.4959299	 -0.1763567
Department of Biomedical Sciences, Cornell University College of Veterinary Medicine, Ithaca, NY, USA.	38573520	42.4404960	-76.4957030
Institute de Recherches Agronomiques et Forestières, Libreville, Gabon.	38573520	 0.3902009	  9.4443643
Department of Biology and One Health Microbiome Center, Center for Infectious Disease Dynamics, The Huck Institutes of the Life Sciences, The Pennsylvania State University, University Park, PA, USA.	38573520	 40.803301	-77.85973
Laboratorio de Zoología Terrestre, Instituto de Biodiversidad Tropical IBIOTROP, Colegio de Ciencias Biológicas y Ambientales, Universidad San Francisco de Quito USFQ, Quito, Ecuador.	38573520	 -0.214945	-78.51320
Centre for Conservation Ecology and Genomics, Institute for Applied Ecology, University of Canberra, Bruce, ACT, Australia.	38573520	-35.242454	149.07826
Department of Biological Sciences, University of Denver, Denver, USA.	38573520	 39.67485	-104.966425
Department of Biodiversity and Center of Aquaculture-CAUNESP, I.B., São Paulo State University, Rio Claro, São Paulo, Brazil.	38573520	-22.40746	 -47.565518
Amphibian Evolution Lab, Biology Department, Vrije Universiteit Brussel, Brussels, Belgium.	38573520	 50.89806	   4.406264
Centre for Biodiversity and Environment Research, Department of Genetics, Evolution and Environment, University College London, London, UK.	38573520	51.50015	-0.1262362
Island Biodiversity and Conservation Centre, University of Seychelles, Mahé, Seychelles.	38573520	-4.62001	55.4550100
School of Natural and Environmental Sciences, Newcastle University, Newcastle Upon Tyne, UK.	38573520	54.97945	-1.6148200
Department of Biological Sciences, The University of Newcastle, Newcastle 2308, Australia.	38573520	-32.89313	151.70295128
Programa de Pós-graduação em Conservação da Fauna, Universidade Federal de São Carlos, São Carlos, Brazil.	38573520	-22.01750	-47.89083000
Independent Scholar, London, UK.	38573520	 51.55164	 -0.07069376
School of Biological Sciences, The University of Western Australia, Crawley, WA 6009, Australia.	38573520	-31.97885	 115.81824
Department of Herpetology, California Academy of Sciences, San Francisco, CA, USA.	38573520	 37.77005	-122.46636
Department of Biology, Lund University, Lund, Sweden.	38573520	 64.74801	  20.89796
Gabon Biodiversity Program, Center for Conservation and Sustainability, Smithsonian National Zoo and Conservation Biology Institute, Gamba, Gabon.	38573520	-2.723402	 10.024558
Department of Organismic and Evolutionary Biology, Museum of Comparative Zoology, Harvard University, Cambridge, MA, USA.	38573520	42.365248	-71.105015
Microbiology Department, Institut Pasteur, Université Paris Cité, Biology of Spirochetes Unit, Paris, France.	38573174	48.863698	  2.361657
INRS-Centre Armand-Frappier Santé Biotechnologie, Bacterial Symbionts Evolution, Laval, Quebec H7V 1B7, Canada.	38573174	45.54338	-73.72092
Key Laboratory of Adaptation and Evolution of Plateau Biota, Northwest Institute of Plateau Biology, Chinese Academy of Sciences, Xining, China.	38552245	36.62554	101.75739
University of Chinese Academy of Sciences, Beijing, China.	38552245	39.90750	116.39723
Qinghai Provincial Key Laboratory of Animal Ecological Genomics, Northwest Institute of Plateau Biology, Chinese Academy of Sciences, Xining, China.	38552245	36.62554	101.757390
Smurfit Institute of Genetics, Trinity College Dublin, Dublin 2, Ireland.	38533900	53.34007	 -6.252832
The SFI Centre for Research Training in Genomics Data Science, University of Galway, Galway, Ireland.	38533900	53.27380	 -9.051780
Department of Archaeology, University College Cork, Cork, Ireland.	38533900	51.88926	-8.491162
Faculty of Science, Atlantic Technological University, Sligo, Ireland.	38533900	54.27060	-8.471644
School of History, Classics and Archaeology, University of Edinburgh, Edinburgh EH8 9AG, UK.	38533900	55.94441	-3.190305
Department of Bacteriology, University of Wisconsin-Madison, Madison, WI, USA.	38526235	43.07185	-89.40789
Laboratory of Evolutionary Genetics and Genomics, The Rockefeller University, New York, NY, USA.	38518286	40.71305	-74.00723
Proteomics Resource Center, The Rockefeller University, New York, NY, USA.	38518286	40.76209	-73.95683
Departament de Biologia Cel·lular, Fisiologia i Immunologia, Universitat Autònoma de Barcelona, Cerdanyola del Vallès 08193, Barcelona, Spain.	38513632	41.50891	2.087820
Institut de Biotecnologia i Biomedicina, Universitat Autònoma de Barcelona, Cerdanyola del Vallès 08193, Barcelona, Spain.	38513632	41.50422	2.100081
Departament de Genètica i Microbiologia, Universitat Autònoma de Barcelona, Cerdanyola del Vallès 08193, Barcelona, Spain.	38513632	41.50422	2.100081
Departament de Biologia Animal, Biologia Vegetal i Ecologia, Universitat Autònoma de Barcelona, Cerdanyola del Vallès 08193, Barcelona, Spain.	38513632	41.50891	  2.087820
Small Mammals Research Unit, Granollers Museum of Natural Sciences, Granollers 08402, Barcelona, Spain.	38513632	41.59698	  2.291126
Center for Biological Data Science, Life Sciences, Virginia Commonwealth University, Richmond, VA, USA.	38513084	37.54961	-77.453117
Department of Biology, University of Nevada Reno, Reno, NV, USA.	38513084	39.54220	-119.81635
Florida Museum of Natural History, University of Florida, Gainesville, FL, USA.	38513084	29.63601	 -82.37004
Department of Microbiology and Cell Biology, Montana State University, Bozeman, MT 59717, USA.	38507667	45.66781	-111.04806
Basic Sciences Division, Fred Hutchinson Cancer Center, Seattle, WA 98109, USA.	38507667	47.62734	-122.3316
Howard Hughes Medical Institute, Fred Hutchinson Cancer Center, Seattle, WA 98109, USA.	38507667	47.62734	-122.3316
Department of Physics and Astronomy, University of California, Riverside, CA 92521, USA.	38507665	33.97587	-117.3312
Department of Computational and Systems Biology, University of Pittsburgh School of Medicine, Pittsburgh, PA 15260, USA.	38507665	40.44506	-79.95176
China-Central Asia the Belt and Road Joint Laboratory on Human and Environment Research, Key Laboratory of Cultural Heritage Research and Conservation, School of Culture Heritage, Northwest University, Xi'an, China.	38507661	NA	NA
Key Laboratory of Vertebrate Evolution and Human Origins, Institute of Vertebrate Paleontology and Paleoanthropology, Center for Excellence in Life and Paleoenvironment, Chinese Academy of Sciences, Beijing, China.	38507661	NA	NA
School of Archaeology, Shandong University, Jinan, China.	38507661	36.66833	116.9972
Zhejiang Provincial Institute of Cultural Relics and Archaeology, Hangzhou, China.	38507661	30.29365	120.1614
National Museum of China, Beijing, China.	38507661	40.18641	116.3603
School of History and Culture, Lanzhou University, Lanzhou, China.	38507661	36.05701	103.8399
Tibet Institute for Conservation and Research of Cultural Relics, Lhasa, China.	38507661	29.65000	 91.1000
Key Laboratory of Western China's Environmental Systems (Ministry of Education), College of Earth and Environmental Sciences, Lanzhou University, Lanzhou, China.	38507661	36.05701	103.8399
Department of Cultural Heritage and Museology, Nanjing Normal University, Nanjing, China.	38507661	32.06167	118.7778
Shandong Provincial Institute of Cultural Relics and Archaeology, Jinan, China.	38507661	36.66833	116.9972
Gansu Provincial Institute of Cultural Relics and Archaeology, Lanzhou, China.	38507661	36.05701	103.8399
Fudan Archaeological Science Institute, Fudan University, Shanghai, China.	38507661	31.22222	121.4581
Qinghai Provincial Cultural Relics and Archaeology Institute, Xining, China.	38507661	36.62554	101.7574
Shaanxi Academy of Archaeology, Xi'an, China.	38507661	34.25833	108.9286
School of Archaeology and Museology, Shanxi University, Taiyuan, China.	38507661	37.86944	112.5603
School of Ecological and Environmental Sciences, East China Normal University, Shanghai, China.	38507661	31.22222	121.4581
University of the Chinese Academy of Sciences, Beijing, China.	38507661	39.90750	116.3972
Science and Technology Archaeology, National Centre for Archaeology, Beijing, China.	38507661	39.90750	116.3972
Joint International Research Laboratory of Environmental and Social Archaeology, Shandong University, Qingdao, China.	38507661	36.06488	120.3804
State Key Laboratory of Biocontrol and Guangdong Provincial Key Laboratory of Plant Resources, School of Life Sciences, Southern Marine Science and Engineering Guangdong Laboratory (Zhuhai), Sun Yat-sen University, Guangzhou, China.	38507653	NA	NA
School of Ecology, Sun Yat-sen University, Shenzhen, China.	38507653	22.54554	114.06830
Institute of Wetland Research, Hainan Academy of Forestry (Hainan Academy of Mangrove), Haikou, China.	38507653	20.03421	110.34651
Population Genomics Group, Department of Veterinary Sciences, LMU Munich, Martinsried 82152, Germany.	38507648	48.10892	 11.45193
Département de biochimie, de microbiologie, et de bio-informatique, Faculté des sciences et de génie, Université Laval, Québec City, Canada.	38489607	45.56095	-73.6809
Institut de Biologie Intégrative et des Systèmes (IBIS), Pavillon Charles-Eugène-Marchand, Université Laval, Quebec City, Canada.	38489607	45.56095	-73.6809
Groupe de recherche en écologie buccale, Faculté de médecine dentaire, Université Laval, Québec City, Canada.	38489607	45.56095	-73.6809
Department of Microbiology & Immunology, Faculty of Medicine and Health Sciences, McGill University, Montreal, Quebec, Canada.	38489607	45.50887	-73.55424
Félix d'Hérelle Reference Center for Bacterial Viruses, Université Laval, Québec City, Canada.	38489607	45.56095	-73.68090
Chengdu Institute of Biology, Chinese Academy of Sciences, 610041 Chengdu, Sichuan, China.	38466135	30.66667	104.06667
College of Life Sciences, China Jiliang University, Hangzhou, China.	38466135	29.43370	118.75141
Department of Integrative Biology, University of Guelph, Guelph, ON N1G2W1, Canada.	38466135	43.53197	-80.22481
Department of Genetics, Perelman School of Medicine, University of Pennsylvania, Philadelphia, PA, USA.	38466119	39.95168	-75.20323
Department of Computational Biology, Cornell University, Ithaca, NY, USA.	38466119	42.44823	-76.4605
Department of Biochemistry and Molecular Biology, University of Georgia, Athens, GA, USA.	38442736	33.95741	-83.3768
Institute of Bioinformatics, University of Georgia, Athens, GA, USA.	38442736	33.95741	-83.3768
Department of Genetics, University of Georgia, Athens, GA, USA.	38442736	33.95741	-83.37680
GeoBio-Center, Ludwig-Maximilians-Universität München, Richard-Wagner-Str. 10, Munich 80333, Germany.	38437512	48.14761	 11.56363
Department of Earth and Environmental Sciences, Paleontology & Geobiology, Ludwig-Maximilians-Universität München, Richard-Wagner-Str. 10, Munich 80333, Germany.	38437512	48.14761	 11.56363
Center for Computation & Technology, Louisiana State University, Baton Rouge, LA 70803, USA.	38437512	30.40963	 -91.18012
Present address: Division of Research, Innovation, and Impact & Department of Veterinary Pathobiology, University of Missouri, Columbia, MO 65211, USA.	38437512	38.93463	 -92.34229
School of Life Sciences, University of Hawai'i at Mānoa, Honolulu, HI 96822, USA.	38437512	21.30056	-157.81770
Department of Biological Sciences and Museum of Natural Science, Louisiana State University, Baton Rouge, LA 70803, USA.	38437512	30.41146	-91.18792
School of Zoology, Faculty of Life Sciences, Tel Aviv University, Tel Aviv, Israel.	38427813	32.07358	 34.78805
School of Computer Science, Reichman University, Herzliya, Israel.	38427813	32.16486	 34.84417
Department of Microbiology and Immunology, University of Minnesota Medical School, Minneapolis, MN, USA.	38427813	44.97851	-93.22447
Department of Molecular Genetics, Weizmann Institute of Science, Rehovot, Israel.	38427813	31.90341	 34.80683
Institute of Biochemistry, Food Science and Nutrition, Robert H. Smith Faculty of Agriculture, Food and Environment, The Hebrew University of Jerusalem, Rehovot, Israel.	38427813	31.90341	 34.80683
Department of Biomedical Science and Engineering, Konkuk University, Seoul 05029, Republic of Korea.	38427787	37.56600	126.9784
State Key Laboratory of Developmental Biology of Freshwater Fish, College of Life Sciences, Hunan Normal University, Changsha 410081, China.	38421617	30.99997	108.3046
College of Life Sciences, Hunan Normal University, Changsha 410081, China.	38421617	30.99997	108.3046
Integrative Science Center of Germplasm Creation in Western China (CHONGQING) Science City, Key Laboratory of Freshwater Fish Reproduction and Development (Ministry of Education), Key Laboratory of Aquatic Science of Chongqing, School of Life Sciences, Southwest University, Chongqing 400715, China.	38421617	NA	NA
Institute of Reproductive and Stem Cell Engineering, NHC Key Laboratory of Human Stem Cell and Reproductive Engineering, School of Basic Medical Sciences, Central South University, Changsha 410078, China.	38421617	NA	NA
State Key Laboratory of Freshwater Ecology and Biotechnology, Institute of Hydrobiology, Chinese Academy of Sciences, Wuhan, Hubei 430072, China.	38421617	30.58333	114.2667
Max Planck Institute of Molecular Cell Biology and Genetics, 01307 Dresden, Germany.	38421032	51.04850	13.76532
Center for Systems Biology Dresden, 01307 Dresden, Germany.	38421032	51.04850	13.76532
Cluster of Excellence Physics of Life, TU Dresden, 01062 Dresden, Germany.	38421032	51.05099	13.73363
School of Biological Sciences, The University of Hong Kong, Hong Kong, China.	38415852	22.28326	114.13754
Department of Organismic and Evolutionary Biology, Harvard University, Cambridge, MA 02138, USA.	38415852	42.37742	-71.12245
Department of Ecology and Evolutionary Biology, Tulane University, New Orleans, LA 70118, USA.	38415852	29.94923	-90.12312
Cornell Lab of Ornithology and Department of Neurobiology and Behavior, Cornell University, Ithaca, NY 14853, USA.	38415852	42.45139	-76.48186
DOE Great Lakes Bioenergy Research Center, University of Wisconsin-Madison, Madison, WI 53726, USA.	38415839	43.07027	-89.42196
Laboratory of Genetics, Center for Genomic Science Innovation, Wisconsin Energy Institute, J. F. Crow Institute for the Study of Evolution, University of Wisconsin-Madison, Madison, WI 53726, USA.	38415839	43.07027	-89.42196
Evolutionary Studies Initiative and Department of Biological Sciences, Vanderbilt University, Nashville, TN 37235, USA.	38415839	36.14599	-86.80443
UCIBIO, Department of Life Sciences, NOVA School of Science and Technology, Universidade NOVA de Lisboa, Caparica, Portugal.	38415839	38.66179	 -9.20032
Biology Department, Villanova University, Villanova, PA 19085, USA.	38415839	40.03754	-75.34927
Department of Bioinformatics and Genomics, University of North Carolina at Charlotte, Charlotte, NC 28223, USA.	38415839	35.30195	-80.730238
Westerdijk Fungal Biodiversity Institute, 3584 CT Utrecht, The Netherlands.	38415839	52.09060	  5.177054
Guangdong Province Key Laboratory of Microbial Signals and Disease Control, Integrative Microbiology Research Center, South China Agricultural University, Guangzhou 510642, China.	38415839	25.70628	-99.239680
College of Agriculture and Biotechnology and Centre for Evolutionary & Organismal Biology, Zhejiang University, Hangzhou 310058, China.	38415839	30.06517	102.195270
Plant Physiology, Department of Organisms and Systems Biology, Faculty of Biology and Biotechnology Institute of Asturias, University of Oviedo, Asturias, Spain.	38411627	43.36028	 -5.844792
Unit of Evolutionary Biology/Systematic Zoology, Institute of Biochemistry and Biology, University of Potsdam, Potsdam, Germany.	38410843	52.39615	 13.058538
Laboratory of Adaptive Evolution and Genomics, Research Unit of Environmental and Evolutionary Biology, Institute of Life, Earth & Environment, University of Namur, Namur, Belgium.	38410843	50.46044	 4.872583
Department of Animal Physiology, Institute of Biochemistry and Biology, University of Potsdam, Potsdam, Germany.	38410843	52.39615	13.058538
Department of Crop and Animal Science, Faculty of Life Sciences, Humboldt University, Berlin, Germany.	38410843	52.52343	13.411437
Institute of Plant Protection, Beijing Academy of Agriculture and Forestry Sciences, Beijing 100097, China.	38401527	 39.90750	116.39723
Department of Entomology and MOA Key Lab of Pest Monitoring and Green Management, College of Plant Protection, China Agricultural University, Beijing 100193, China.	38401527	 25.70628	-99.23968
Bio21 Institute, School of BioSciences, University of Melbourne, Parkville, Victoria 3010, Australia.	38401527	-37.79724	144.95343
Department of Zoology, University of Cambridge, Cambridge CB2 3EJ, UK.	38401262	52.20343	0.1205000
Tree of Life Programme, Wellcome Sanger Institute, Hinxton, UK.	38401262	52.08628	0.1811263
Friedrich Miescher Laboratory of the Max Planck Society, Tübingen, Germany.	38401262	48.52290	9.0520980
Centre of Excellence in Biodiversity, University of Rwanda, Huye, Rwanda.	38401262	-2.5815527	29.713758
Mpala Research Centre, Nanyuki 10400, Laikipia, Kenya.	38401262	 0.3210365	36.765079
School of Biosciences, Cardiff University, Cardiff CF 10 3AX, UK.	38401262	51.4878910	-3.178244
UK Centre for Ecology and Hydrology, Wallingford OX10 8BB, UK.	38401262	51.602338	-1.110676
Institut Botànic de Barcelona (IBB), CSIC-CMCNB, Barcelona, Catalonia, Spain.	38401262	41.363359	 2.166200
African Butterfly Research Institute, Nairobi, Kenya.	38401262	-1.285786	36.820025
Centre for Ecology and Conservation, University of Exeter in Cornwall, Penryn TR10 9FE, UK.	38401262	50.17055	 -5.125645
Turkana Basin Institute, Stony Brook University, Stony Brook, NY 11794, USA.	38401262	40.90592	-73.113682
Institute of Evolutionary Biology, University of Edinburgh, Edinburgh, UK.	38401262	55.95020	 -3.187563
Marine College, Shandong University, Weihai 264209, China.	38391484	 37.50914	122.1136
Shenzhen Branch, Guangdong Laboratory of Lingnan Modern Agriculture, Key Laboratory of Synthetic Biology, Laboratory of the Ministry of Agriculture and Rural Affairs, Agricultural Genomics Institute at Shenzhen, Chinese Academy of Agricultural Sciences, Shenzhen 518120, China.	38391484	NA	NA
College of Science, Health, Engineering and Education, Murdoch University, Murdoch, 6150 Western Australia, Australia.	38391484	-32.07157	115.8346
State Key Laboratory of Crop Stress Adaptation and Improvement, School of Life Sciences, Henan University, Kaifeng 475004, China.	38391484	34.51346	101.54569
National Key Laboratory of Crop Genetic Improvement, College of Plant Science and Technology, Huazhong Agricultural University, Wuhan 430070, China.	38391484	30.58333	114.26667
Bioinformatics and Analytics Core, University of Missouri, Columbia, MO, USA.	38391484	38.95155	-92.32859
Environmental and Life Sciences Graduate Program, Trent University, Peterborough, Ontario, Canada.	38378172	44.30896	-78.31986
Department of Forensic Science, Trent University, Peterborough, Ontario, Canada.	38378172	44.30896	-78.31986
CNRS UPR9022, Institut de Biologie Moléculaire et Cellulaire, Université de Strasbourg, Strasbourg, France.	38377349	48.58361	  7.74806
Department of Ecology and Evolution, SIB Swiss Institute of Bioinformatics, University of Lausanne, Lausanne, Switzerland.	38377349	46.51963	  6.632128
School of Basic Medical Science, Sino-French Hoffmann Institute, Guangzhou Medical University, Guangzhou, China.	38377349	23.11667	113.250000
Key Laboratory of Epigenetic Regulation and Intervention, Institute of Biophysics, Chinese Academy of Sciences, Beijing 100101, China.	38377343	39.90750	116.397230
College of Life Sciences, University of Chinese Academy of Sciences, Beijing 100049, China.	38377343	39.90750	116.3972
National Laboratory of Biomacromolecules, CAS Center for Excellence in Biomacromolecules, Institute of Biophysics, Chinese Academy of Sciences, Beijing 100101, China.	38377343	39.90750	116.3972
Shandong First Medical University & Shandong Academy of Medical Sciences, Jinan 250117, Shandong, China.	38377343	28.42878	121.5646
Institute of Population Health Sciences, National Health Research Institutes, Taiwan, Republic of China.	38376543	23.75282	 120.9535
Department of Molecular Biology and Human Genetics, Tzu Chi University, Taiwan, Republic of China.	38376543	28.70069	-106.1300
Laboratory Animal Center, National Health Research Institutes, Taiwan, Republic of China.	38376543	23.91779	 120.7491
Regenerative Biology, Morgridge Institute for Research, Madison, WI 53715, USA.	38376487	43.06597	 -89.40248
Southwest Fisheries Science Center, National Oceanic and Atmospheric Administration (NOAA), La Jolla, CA 92037, USA.	38376487	32.84493	-117.25414
Neuroscience Research Institute, University of California, Santa Barbara, CA, USA.	38376487	34.41340	-119.84714
Department of Comparative Biology and Experimental Medicine, University of Calgary, Calgary, Canada.	38376487	51.07795	-114.12947
V.E. Enterprises, Arcata, CA, USA.	38376487	40.86819	-124.09055
University of Wisconsin Biotechnology Center, Bioinformatics Resource Center, University of Wisconsin - Madison, Madison, WI 53706, USA.	38376487	43.07404	 -89.41047
Vertebrate Genome Lab, The Rockefeller University, New York, NY 10065, USA.	38376487	40.76526	-73.96377
Center for Gene Regulation in Health and Disease (GRHD), Cleveland State University, Cleveland, OH, USA.	38376487	41.50514	-81.69146
Department of Biological, Geological and Environmental Sciences, Cleveland State University, Cleveland, OH, USA.	38376487	41.50514	-81.69146
Center for RNA Science and Therapeutics, School of Medicine, Case Western Reserve University, Cleveland, OH, USA.	38376487	41.50514	-81.69146
Genome Informatics Section, National Human Genome Research Institute, Bethesda, MD 20892, USA.	38376487	39.00503	-77.09758
Laboratory of Neurogenetics of Language, The Rockefeller University/HHMI, New York, NY 10065, USA.	38376487	40.76526	-73.96377
Department of Biology, Pennsylvania State University, University Park, PA 16802, USA.	38376487	40.80454	-77.8585268
Tree of Life, Wellcome Sanger Institute, Cambridge CB10 1SA, UK.	38376487	52.07853	  0.1861349
LOEWE Centre for Translational Biodiversity Genomics, 60325 Frankfurt, Germany.	38376487	50.11790	  8.6635822
Senckenberg Research Institute, 60325 Frankfurt, Germany.	38376487	50.11790	  8.663582
Institute of Cell Biology and Neuroscience, Faculty of Biosciences, Goethe University Frankfurt, 60438 Frankfurt, Germany.	38376487	50.17786	  8.639213
Department of Computer Science, Purdue University, West Lafayette, IN 47907, USA.	38376487	40.42410	-86.916776
Department of Biological Sciences, Purdue University, West Lafayette, IN 47907, USA.	38376487	40.4241	-86.916776
Department of Entomology, Texas A&M University, College Station, TX 77843, USA.	38376487	30.6278	-96.334986
Institute for Evolution and Biodiversity (IEB), University of Muenster, 48149, Muenster, Germany.	38376487	51.9614	  7.602099
Senckenberg Biodiversity and Climate Research Centre (BiK-F), Frankfurt am Main, Germany.	38376487	50.11088	   8.679492
Department of Molecular, Cellular and Developmental Biology, University of California Santa Barbara, Santa Barbara, CA 93106, USA.	38376487	34.41733	-119.845946
Department of Cell and Regenerative Biology, University of Wisconsin School of Medicine and Public Health, Madison, WI 53726, USA.	38376487	43.07027	 -89.421959
Department of Quantitative and Computational Biology, University of Southern California, Los Angeles, Los Angeles, CA 90089, USA.	38376487	34.02404	-118.28540
Department of Biology, William G. Davis Building, University of Toronto, Mississauga L5L-1C6, Canada.	38366781	43.54820	 -79.66099
Department of Ecology and Evolutionary Biology, University of Toronto, Toronto M5S-3B2, Canada.	38366781	43.66144	 -79.39953
School of Biology and Environmental Science, University College Dublin, Belfield, Ireland.	38366776	53.30918	  -6.2337071
Department of Plant Sciences, The Crop Science Centre, University of Cambridge, Cambridge CB2 3EA, UK.	38366574	52.20289	   0.1215181
Present address: Department of Plant Pathology, Washington State University, Pullman 99163, USA.	38366574	46.73297	-117.1770648
Organismal and Evolutionary Biology Research Programme, Faculty of Biological and Environmental Sciences, University of Helsinki, Helsinki 00014, Finland.	38366566	60.16952	 24.93545
Institute of Biotechnology, University of Helsinki, Helsinki 00014, Finland.	38366566	60.22670	 25.01668
Area of Ecology and Biodiversity, The School of Biological Sciences, Kadoorie Biological Sciences Building, The University of Hong Kong, Hong Kong, Hong Kong SAR.	38366566	22.28349	114.13707
Department of Clinical Microbiology 9301, Rigshospitalet, Copenhagen Ø 2100, Denmark.	38366124	55.70936	12.57759
The Novo Nordisk Foundation Center for Biosustainability, Technical University of Denmark, Lyngby 2800, Denmark.	38366124	55.76960	12.50233
Department of Clinical Medicine, Faculty of Health and Medical Sciences, University of Copenhagen, Copenhagen N 2200, Denmark.	38366124	55.69434	12.54865
Instituto de Fisiología, Biología Molecular y Neurociencias (IFIBYNE), Consejo Nacional de Investigaciones Científicas y Técnicas (CONICET), Universidad de Buenos Aires (UBA), Buenos Aires 1428, Argentina.	38364113	NA	NA
Institute of Human Genetics, UMR 9002 CNRS-Université de Montpellier, Montpellier, France.	38364113	43.61130	 3.87710
Department of Genetics and Developmental Biology, The Rappaport Faculty of Medicine and Research Institute, Technion-Israel Institute of Technology, Haifa 3109601, Israel.	38364113	32.81728	34.98877
Janelia Research Campus, Howard Hughes Medical Institute, Ashburn, VA 20147, USA.	38364113	 39.07028	-77.46833
Departamento de Ecología, Genética y Evolución, Facultad de Ciencias Exactas y Naturales (FCEN), Universidad de Buenos Aires (UBA), Buenos Aires 1428, Argentina.	38364113	-34.55365	-58.44025
Departamento de Genética e Biologia Evolutiva, Instituto de Biociências, Universidade de São Paulo, São Paulo, SP, Brazil.	38349332	-23.56771	-46.54619
Population Genetics Department, Institute of Evolutionary Biology (IBE - CSIC/Universitat Pompeu Fabra), 08003 Barcelona, Spain.	38349332	41.38566	2.185081
Shenzhen Branch, Guangdong Laboratory for Lingnan Modern Agriculture, Genome Analysis Laboratory of the Ministry of Agriculture, Agricultural Genomics Institute at Shenzhen, Chinese Academy of Agricultural Sciences, Shenzhen 518120, China.	38324417	NA	NA
Key Laboratory of Biology and Genetic Improvement of Horticultural Crops of the Ministry of Agriculture, Sino-Dutch Joint Laboratory of Horticultural Genomics, Institute of Vegetables and Flowers, Chinese Academy of Agricultural Sciences, Beijing 100081, China.	38324417	NA	NA
Marine College, Shandong University, Weihai 264209, China.	38324417	37.50914	 122.1136
State Key Laboratory of Tropical Crop Breeding, Chinese Academy of Tropical Agricultural Sciences, Haikou 571101, China.	38324417	20.03421	 110.3465
Department of Biology, Colorado State University, Fort Collins, CO 80523, USA.	38324417	40.58320	-105.0811
Shenzhen Branch, Guangdong Laboratory of Lingnan Modern Agriculture, Key Laboratory of Synthetic Biology, Ministry of Agriculture and Rural Affairs, Agricultural Genomics Institute at Shenzhen, Chinese Academy of Agricultural Sciences, Shenzhen 518120, China.	38324417	NA	NA
Biodiversity Research Center, Academia Sinica, Taipei 115201, Taiwan.	38319744	25.03841	121.5637
Department of Soil and Environmental Sciences, National Chung Hsing University, Taichung 40227, Taiwan.	38319744	24.12399	120.6749
Department of Ecology and Evolution, University of Chicago, Chicago, IL 60637, USA.	38319744	41.78227	-87.60428
Key Laboratory of Zoological Systematics and Evolution, Institute of Zoology, Chinese Academy of Sciences, Beijing, China.	38318973	39.90750	116.39723
College of Life Sciences, University of Chinese Academy of Sciences, Beijing, China.	38318973	39.90750	116.39723
State Key Laboratory of Genetic Resources and Evolution, Kunming Institute of Zoology, Chinese Academy of Sciences, Kunming 650223, China.	38318973	25.03889	102.7183
Tibet Plateau Institute of Biology, Lhasa 850000, China.	38318973	29.65000	 91.1000
Lake Biwa Museum, Kusatsu, Shiga 525-0001, Japan.	38318973	35.06391	135.9427
Center for Wildlife Resources Conservation Research, Jiangxi Agricultural University, Nanchang, China.	38318973	28.683960	115.8531
Department of Biological Sciences, National University of Singapore, Singapore, Singapore.	38318973	 1.294328	103.7811
Department of Biological Science, University of Toronto Scarborough, Scarborough, Ontario, Canada.	38314890	43.783860	-79.1869
Faculty of Natural Resources Management, Lakehead University, Thunder Bay, Ontario, Canada.	38314890	48.38178	-89.24606
Fisheries Assessment Program, Chippewas of Nawash Unceded First Nation, Neyaashiinigmiing, Ontario, Canada.	38314890	44.88312	-81.05782
Inuit Tapiriit Kanatami, Ottawa, Ontario, Canada.	38314890	45.32010	-75.91868
Department of Cell and Systems Biology, University of Toronto, Toronto, Ontario, Canada.	38314890	43.66300	-79.393547
Department of Ecological and Evolutionary Biology, University of Toronto, Toronto, Ontario, Canada.	38314890	43.66300	-79.393547
CINBIO, Universidade de Vigo, 36310 Vigo, Spain.	38314876	42.17044	 -8.685218
Department of Biochemistry, Genetics and Immunology, Universidade de Vigo, 36310 Vigo, Spain.	38314876	42.16599	-8.679650
UCIBIO/REQUIMTE, BioSIM, Departamento de Biomedicina, Faculdade de Medicina da Universidade do Porto, 4200-319 Porto, Portugal.	38314876	41.18295	-8.600315
Institut Botànic de Barcelona (IBB), CSIC-CMCNB, 08038 Barcelona, Catalonia, Spain.	38306580	41.36336	 2.166200
Institute of Biophysics, Academy of Sciences of the Czech Republic, 61265 Brno, Czech Republic.	38306580	49.19205	16.613191
Faculty of Biology, Technische Universität Dresden, D-01069 Dresden, Germany.	38306580	51.02727	13.726753
Laboratori de Botànica-Unitat Associada CSIC, Facultat de Farmàcia i Ciències de l'Alimentació, Universitat de Barcelona, 08028 Barcelona, Catalonia, Spain.	38306580	41.37983	 2.114182
Institute of Biology, NAWI Graz, Karl-Franzens-Universität, A-8010 Graz, Austria.	38306580	47.077560	 15.44946
Department of Genetics, University of Georgia, Athens, GA 30602, USA.	38306314	33.949001	-83.37540
Bioinformatics Multidisciplinary Environment-BioME, IMD, Federal University of Rio Grande do Norte, Natal, Brazil.	38306290	-5.794561	-35.21040
Bioinformatics and Systems Biology Laboratory, Federal University of Paraná, Curitiba 81520-260, Brazil.	38306290	-25.45805	-49.23717
Department of Psychiatry, Washington University School of Medicine, St. Louis, MO, USA.	38306290	 38.63565	-90.44557
Department of Biochemistry, CB, Federal University of Rio Grande do Norte, Natal, Brazil.	38306290	 -5.83464	-35.21241
Department of Medical Biochemistry and Microbiology, Uppsala University, BMC, Uppsala SE-75123, Sweden.	38301272	59.84808	  17.66968
Scripps Institution of Oceanography, University of California San Diego, La Jolla, CA 92093, USA.	38301272	32.86597	-117.25287
Department of Veterinary Integrative Biosciences, Texas A&M University, College Station, TX 77483, USA.	38301272	30.62780	 -96.33499
Department of Biochemistry, School of Medicine, Vanderbilt University, Nashville, TN, USA.	38298175	36.16635	 -86.77905
Department of Chemistry, University of California, Berkeley, Berkeley, CA, USA.	38298175	37.86778	-122.26537
Department of Molecular and Cell Biology, University of California, Berkeley, Berkeley, CA, USA.	38298175	37.86906	-122.27046
Howard Hughes Medical Institute, The Rockefeller University, New York, NY, USA.	38298175	40.76260	-73.954860
Department of Chemistry, Vanderbilt University, Nashville, TN, USA.	38298175	36.16635	-86.779054
Institut de Biologia Evolutiva (UPF-CSIC), Departament de Medicina i Ciències de la Vida, Universitat Pompeu Fabra, Parc de Recerca Biomèdica de Barcelona, Barcelona 08003, Spain.	38285634	41.38566	  2.185081
PCB-PRBB Animal Facility Alliance, Parc de Recerca Biomèdica de Barcelona, Barcelona 08003, Spain.	38285634	41.38487	 2.195317
UB Institute of Neuroscience, Department of Pathology and Experimental Therapeutics, Universitat de Barcelona, Barcelona 08007, Spain.	38285634	41.38950	 2.164356
Institute of Genomics, University of Tartu, Tartu 51010, Estonia.	38285634	58.37338	26.725343
Institute of Clinical Molecular Biology, Christian-Albrechts-Universität zu Kiel, Kiel 24118, Germany.	38285634	54.33858	10.126153
Mouse Mutant Core Facility, Institute for Research in Biomedicine (IRB), Barcelona 08028, Spain.	38285634	41.37983	 2.114182
Human Evolutionary Ecology Group, Department of Evolutionary Anthropology, University of Zurich, Zurich 8057, Switzerland.	38285634	47.39185	 8.538519
Laboratory of Molecular Physiology, Departament de Medicina i Ciències de la Vida, Universitat Pompeu Fabra, Parc de Recerca Biomèdica de Barcelona, Barcelona 08003, Spain.	38285634	41.38566	  2.185081
Graduate School of Life and Environmental Sciences, University of Tsukuba, Tsukuba, Japan.	38271287	36.14311	139.390793
Faculty of Life and Environmental Sciences, University of Tsukuba, Tsukuba, Japan.	38271287	36.14311	139.390793
Deep-Sea Biodiversity Research Group, Research Institute for Global Change (RIGC), Japan Agency for Marine-Earth Science and Technology (JAMSTEC), Yokosuka, Japan.	38271287	36.65523	139.27149
Division of EcoScience, Ewha Womans University, Seoul, South Korea.	38271287	37.56600	126.97840
Division of Invertebrate Zoology, American Museum of Natural History, New York, NY, USA.	38271287	40.78125	-73.97369
Research Center for Advanced Analysis, National Agriculture and Food Research Organization, Tsukuba, Japan.	38271287	36.05366	140.0900
Interdisciplinary Theoretical and Mathematical Sciences program (iTHEMS), RIKEN, Wako, Saitama, Japan.	38271287	NA	NA
Graduate School of Agriculture, Kyoto University, Kyoto, Japan.	38271287	35.03054	135.7844
Department of Biology and Ecology, Faculty of Science, University of Ostrava, Ostrava, Czech Republic.	38271287	49.84079	 18.29088
Center for Computational Sciences, University of Tsukuba, Tsukuba, Japan.	38271287	36.14311	139.39079
Department of Oceanography, Kyungpook National University, Daegu 41566, Korea.	38267085	35.87028	128.59111
Kyungpook Institute of Oceanography, Kyungpook National University, Daegu 41566, Korea.	38267085	35.87028	128.591110
Department of Biological Sciences, Sungkyunkwan University, Suwon 16419, Korea.	38267085	37.29111	127.008890
Institute of Plant Biochemistry, Cluster of Excellence on Plant Science (CEPLAS), Heinrich Heine University, 40225 Düsseldorf, Germany.	38267085	51.20263	  6.780556
Department of Biochemistry and Microbiology, Rutgers University, New Brunswick, NJ 08901, USA.	38267085	40.48969	-74.44789
Division of Applied Life Science (BK21 four), Research Institute of Life Science, Gyeongsang National University, Jinju 52828, Korea.	38267085	35.19278	128.08472
National Engineering Laboratory for Animal Breeding, State Key Laboratory of Animal Biotech Breeding, Breeding and Reproduction of Ministry of Agriculture and Rural Affairs, College of Animal Science and Technology, China Agricultural University, Beijing 100193, China.	38266195	NA	NA
Westlake Laboratory of Life Sciences and Biomedicine, Hangzhou, Zhejiang 310024, China.	38266195	30.29365	120.1614
School of Life Sciences, Westlake University, Hangzhou, Zhejiang 310024, China.	38266195	30.29365	120.1614
Agriculture Genome Institute at Shenzhen, Chinese Academy of Agricultural Sciences, Shenzhen 518120, China.	38266195	22.54554	114.0683
National Animal Husbandry Service, Beijing 100125, China.	38266195	39.90750	116.39723
Academy of Science and Technology, Chuxiong Normal University, Chuxiong 675000, China.	38266195	25.43204	101.70479
Center for Quantitative Genetics and Genomics (QGG), Aarhus University, Aarhus, Denmark.	38266195	56.16871	 10.20243
Faculty of Biology, Technische Universität Dresden, 01069 Dresden, Germany.	38262464	51.02727	13.72675
Institut Botànic de Barcelona, IBB (CSIC-MCNB), 08038 Barcelona, Catalonia, Spain.	38262464	41.36336	 2.16620
Institute of Biology, NAWI Graz, Karl-Franzens-Universität, 8010 Graz, Austria.	38262464	47.07756	15.44946
Leibniz Institute of Plant Genetics and Crop Plant Research (IPK), 06466 Seeland, Germany.	38243866	51.82322	11.287328
Faculty of Natural Sciences III, Martin Luther University Halle-Wittenberg, Institute of Agricultural and Nutritional Sciences, 06120 Halle, Germany.	38243866	51.51174	11.880669
Center for Integrated Breeding Research (CiBreed), Georg-August-University, Göttingen, Germany.	38243866	51.53260	 9.928442
German Centre for Integrative Biodiversity Research (iDiv) Halle-Jena-Leipzig, Leipzig, Germany.	38243866	51.33969	 12.37136
Key Laboratory of Animal Ecology and Conservation Biology, Institute of Zoology, Chinese Academy of Sciences, Beijing 100101, China.	38243850	39.90750	116.39723
State Key Laboratory of Membrane Biology, Institute of Zoology, Chinese Academy of Sciences, Beijing 100101, China.	38243850	39.90750	116.39723
University of Chinese Academy of Sciences, Beijing 100049, China.	38243850	39.90750	116.39723
The Key Laboratory of Mariculture, Ministry of Education, Fisheries College, Ocean University of China, Qingdao 266003, China.	38243850	25.70628	-99.23968
Ecology Laboratory, Beijing Ecotech Science and Technology Ltd, Beijing 100190, China.	38243850	39.90750	116.39723
Key Laboratory of Animal Physiology, Biochemistry and Molecular Biology of Hebei Province, College of Life Sciences, Hebei Normal University, Shijiazhuang 050024, China.	38243850	39.16625	117.20423
Novogene Bioinformatics Institute, Beijing, China.	38243850	39.90750	116.39723
Integrative Biology, The University of Texas at Austin, Austin, TX, USA.	38243377	30.28461	-97.73186
Molecular Biosciences, The University of Texas at Austin, Austin, TX, USA.	38243377	30.28461	-97.731865
Institute for Cell and Molecular Biology, University of Texas at Austin, Austin, TX, USA.	38243377	30.26498	-97.746598
Roslin Institute, University of Edinburgh, Edinburgh, United Kingdom.	38241079	55.94444	 -3.188496
Usher Institute, University of Edinburgh, Edinburgh, United Kingdom.	38241079	55.94444	 -3.188496
National Institute of Health Data Science at Peking University, Beijing, China.	38241079	39.90750	116.397230
Institute of Population Health, University of Liverpool, Liverpool, Unitied Kingdom.	38241079	53.41058	 -2.977940
Biomathematics and Statistics Scotland, Edinburgh, United Kingdom.	38241079	55.95020	 -3.187563
Department of Biological Sciences, University of South Carolina, Columbia, SC 29208-3401, USA.	38232726	33.99559	-81.029403
State Key Laboratory of Biocontrol, School of Ecology, Sun Yat-sen University, Guangzhou, China.	38225175	23.11667	113.250000
Department of Zoology, University of Cambridge, Cambridge, UK.	38225175	52.20343	   0.1205
Department of Botany and Biodiversity Research Centre, University of British Columbia, Vancouver, Bc, Canada.	38225175	49.26164	-123.1133
Ministry of Education Key Laboratory for Biodiversity Sciences and Ecological Engineering, College of Life Sciences, Beijing Normal University, Beijing, China.	38225175	39.90750	 116.3972
Sichuan Key Laboratory of Conservation Biology for Endangered Wildlife, Chengdu Research Base of Giant Panda Breeding, Sichuan Academy of Giant Panda, Chengdu, China.	38225175	30.66667	104.066670
Department of Environmental Science, Tunghai University, Taichung, Taiwan, China.	38225175	32.32812	118.763840
14, bis rue des Temples, La Ferté-Saint-Aubin 45240, France.	38225175	47.72371	  1.936515
Milner Centre for Evolution, Department of Biology and Biochemistry, University of Bath, Bath, UK.	38225175	51.38280	  -2.359284
Department of Genome Sciences, University of Washington, Seattle, WA, USA.	38197289	47.65130	-122.312700
Herbold Computational Biology Program, Fred Hutchinson Cancer Center, Seattle, WA, USA.	38197289	47.60323	-122.330280
Departamento de Genética, Universidade Federal do Rio de Janeiro, Rio de Janeiro, Brazil.	38197288	-22.91370	-43.1780134
School of Life Sciences, University of Sussex, Brighton, UK.	38197288	 50.86447	 -0.0870765
Department of Biological Sciences, Smith College, Northampton, MA, USA.	38197288	 42.31952	-72.6297560
School of Biological Sciences, University of California, Irvine, CA, USA.	38197288	33.64842	-117.8410
Key Laboratory of Genetic Evolution & Animal Models, Kunming Natural History Museum of Zoology, Kunming Institute of Zoology, Chinese Academy of Sciences, Kunming, Yunnan, China.	38175672	25.03889	 102.7183
Center of Evolutionary and Organismal Biology, and Women's Hospital, Zhejiang University School of Medicine, Hangzhou, Guangdong, China.	38175672	23.25932	 112.3566
Liangzhu Laboratory, Zhejiang University Medical Center, Hangzhou, Guangdong, China.	38175672	23.25932	112.356640
Institute of Medical Genetics, School of Medicine, Cardiff University, Cardiff, UK.	38175672	51.48131	 -3.180498
National Resource Center for Non-Human Primates, Kunming Primate Research Center, and National Research Facility for Phenotypic and Genetic Analysis of Model Animals (Primate Facility), Kunming Institute of Zoology, Chinese Academy of Sciences, Kunming, Yunnan, China.	38175672	NA	NA
SMBE Treasurer.	38174624	34.16585	-118.9748
Key Laboratory of Genetic Evolution & Animal Models, Kunming Institute of Zoology, Chinese Academy of Sciences, Kunming, Yunnan 650223, China.	38174583	25.03889	 102.7183
School of Ecology and Environment, Northwestern Polytechnical University, Xi'an, Shaanxi 710072, China.	38174583	34.25833	 108.9286
Kunming College of Life Science, University of the Chinese Academy of Sciences, Kunming, Yunnan 650204, China.	38174583	25.03889	102.71833
Room 401, No. 2, Lane 155, Lianhua South Road, Shanghai 201100, China.	38174583	44.34947	-69.54315
Plant Protection Research Center, Shenzhen Polytechnic University, Shenzhen 518055, China.	38174583	22.55653	113.98590
Key Laboratory of Zoological Systematics and Application, School of Life Science, Institute of Life Science and Green Development, Hebei University, Baoding 071002, China.	38174583	29.74880	105.7584
Engineering Research Center for Forest and Grassland Disaster Prevention and Reduction, Mianyang Normal University, 621000 Mianyang, China.	38174583	31.46784	104.6817
Institute of Marine Science and Technology, Shandong University, Qingdao 266237, China.	38174583	28.42878	121.5646
Mathematics Institute, University of Warwick, Coventry CV4 7AL, UK.	38168711	52.38581	-1.564814
School of Life Sciences, University of Warwick, Coventry CV4 7AL, UK.	38168711	52.37375	-1.552792
Zeeman Institute for Systems Biology and Infectious Disease Epidemiology Research (SBIDER), University of Warwick, Coventry CV4 7AL, UK.	38168711	52.38581	-1.564814
UK Health Security Agency, London NW9 5EQ, UK.	38168711	51.59520	 -0.2550819
Department of Statistics, University of Warwick, Coventry CV4 7AL, UK.	38168711	52.38581	 -1.5648144
Department of Biology, Emory University, Atlanta, GA, USA.	38158742	33.78899	-84.3207600
Graduate Program in Population Biology, Ecology, and Evolution, Emory University, Atlanta, GA, USA.	38158742	33.78899	-84.320760
Emory Center of Excellence for Influenza Research and Response (CEIRR), Atlanta, GA, USA.	38158742	33.74855	-84.391502
Marine Biological Association of the UK, The Laboratory, Citadel Hill, Plymouth PL1 2PB, UK.	38152864	50.36424	 -4.138954
School of Biological and Marine Sciences, University of Plymouth, Plymouth PL4 8AA, UK.	38152864	50.37417	-4.138993
Horniman Museum and Gardens, London SE23 3PQ, UK.	38152864	51.44094	-0.061179
Departament de Medicina i Ciències de la Vida, Institut de Biologia Evolutiva (CSIC-UPF), Universitat Pompeu Fabra, Barcelona, Spain.	38152862	41.38792	 2.169919
Faculté des Sciences Biologiques, Laboratoire de Biologie Cellulaire et Moléculaire, Université des Sciences et de la Technologie Houari Boumediene, Alger, Algeria.	38152862	36.73225	   3.08746
Département de Biotechnologie, Faculté des Sciences de la Nature et de la Vie, Université Oran 1 (Ahmad Ben Bella), Oran, Algeria.	38152862	35.69906	  -0.63588
Theoretical Biology and Biophysics, Los Alamos National Laboratory, Los Alamos, NM, USA.	38149995	35.88194	-106.30772
Department of Ecology and Evolutionary Biology, University of Michigan, Ann Arbor, MI 48109, USA.	38149460	42.28533	 -83.72904
Present address: Department of Quantitative and Computational Biology, University of Southern California, Los Angeles, CA 90089, USA.	38149460	34.02404	-118.28540
Department of Mathematics and Statistics, Dalhousie University, Halifax, NS, Canada.	38142434	44.64888	 -63.57531
Apple Incorporated, Cupertino, CA, USA.	38142434	37.31931	-122.02926
Department of Biochemistry, Virginia Tech, Blacksburg, VA 24061, USA.	38128148	37.22418	 -80.42173
Fralin Life Sciences Institute, Virginia Tech, Blacksburg, VA 24061, USA.	38128148	37.22418	 -80.42173
Department of Entomology, University of Georgia, Athens, GA 30602, USA.	38128148	33.94900	 -83.37540
Center for Vector-borne Infectious Diseases, Department of Microbiology Immunology and Pathology, Colorado State University, Fort Collins, CO 80523, USA.	38128148	40.57376	-105.08508
Department of Entomology, Virginia Tech, Blacksburg, VA 24061, USA.	38128148	37.22418	 -80.42173
Genetics Bioinformatics and Computational Biology PhD program, Virginia Tech, Blacksburg, VA 24061, USA.	38128148	37.22418	-80.42173
Department of Entomology, University of Kentucky, Lexington, KY 40503, USA.	38128148	38.00541	-84.53656
MosquitoMate, Inc., Lexington, KY 40502, USA.	38128148	38.01730	-84.48153
Anastasia Mosquito Control District, St. Augustine, FL 32092, USA.	38128148	29.90253	-81.41351
Department of Zoology, National Museum, 19300 Prague, Czech Republic.	38124445	50.11261	 14.59627
Department of Zoology, Faculty of Science, Charles University, 12844 Prague, Czech Republic.	38124445	50.08695	 14.50216
Institut des Sciences de l'Evolution de Montpellier (ISEM), University of Montpellier, 34095 Montpellier, France.	38124445	43.61130	 3.877100
Institut Universitaire de France, Paris, France.	38124445	48.82003	 2.338459
School of Biology and Environmental Science, University College Dublin, Belfield, Dublin 4, Ireland.	38124445	53.30918	-6.233707
Max Planck Institute of Molecular Cell Biology and Genetics, 01307 Dresden, Germany.	38124445	51.04850	13.765317
National Bioinformatics Infrastructure Sweden, Uppsala, Sweden.	38124445	60.23333	18.433330
Earlham Institute, Norwich Research Park, Colney Ln, NR4 7UZ Norwich, UK.	38124445	52.62176	 1.218942
School of Biological Sciences, University of East Anglia, Norwich, UK.	38124445	52.62231	  1.244923
Institute for Genomics and Evolutionary Medicine, Temple University, Philadelphia, PA, USA.	38124397	39.95106	-75.165620
Department of Biology, Temple University, Philadelphia, PA, USA.	38124397	39.95106	-75.165620
Department of Medical Genetics and Molecular Biochemistry, Lewis Katz School of Medicine, Temple University, Philadelphia, PA, USA.	38124397	39.95106	-75.165620
Biometry and Evolutionary Biology Laboratory (LBBE), University Claude Bernard Lyon 1, Lyon, France.	38124381	45.76951	  4.830081
Computational Molecular Evolution Group, Heidelberg Institute for Theoretical Studies, Heidelberg, Germany.	38124381	49.40192	  8.680300
CNRS, IBPS, Laboratory of Computational and Quantitative Biology (LCQB), UMR 7238, Sorbonne Université, Paris 75005, France.	38124381	48.84540	 2.344895
Biodiversity Computing Group, Institute of Computer Science, Foundation for Research and Technology - Hellas, Heraklion, Crete, Greece.	38124381	35.32922	25.138660
Institute for Theoretical Informatics, Karlsruhe Institute of Technology, Karlsruhe, Germany.	38124381	49.00944	 8.411670
Program of Biomedical Science, Graduate School of Integrated Sciences for Life, Hiroshima University, Higashi-Hiroshima 739-8526, Japan.	38105444	NA	NA
School of Agriculture, Meiji University, Kawasaki 214-8571, Japan.	38105444	36.65523	139.2715
Program of Basic Biology, Graduate School of Integrated Sciences for Life, Hiroshima University, Higashi-Hiroshima 739-8526, Japan.	38105444	NA	NA
Institute of Environmental Medicine, Karolinska Institutet, Solna 171 65, Sweden.	38091963	59.34830	 18.02424
Department of Medical Epidemiology and Biostatistics, Karolinska Institutet, Solna 171 65, Sweden.	38091963	59.34830	 18.02424
School of Biomedical Engineering, Shenzhen University, Shenzhen, Guangdong 518060, China.	38091963	22.54554	114.06830
Department of Radiation Oncology, Zhongshan Hospital, Fudan University, Shanghai 200032, China.	38091963	31.03601	121.24414
Department of General Surgery, Guangdong Provincial People's Hospital (Guangdong Academy of Medical Sciences), Southern Medical University, Guangzhou, Guangdong 510515, China.	38091963	23.11667	113.25000
Department of Medical Biochemistry and Biophysics, Karolinska Institutet, Solna 171 65, Sweden.	38091963	59.34830	 18.02424
Department of General Surgery, The Fourth Affiliated Hospital, China Medical University, Shenyang 110032, China.	38091963	25.70628	-99.23968
Artificial Intelligence Research Center, AIST, Tokyo, Japan.	38085182	35.68946	139.69172
Graduate School of Frontier Sciences, University of Tokyo, Chiba, Japan.	38085182	35.91805	139.90816
Computational Bio Big Data Open Innovation Laboratory, AIST, Tokyo, Japan.	38085182	35.68946	 139.6917
Department of Biomolecular Engineering, University of California Santa Cruz, Santa Cruz, CA 95064, USA.	38069903	36.97726	-122.0542
Genomics Institute, University of California Santa Cruz, Santa Cruz, CA 95064, USA.	38069903	36.98972	-122.0647
Ornithology Department, Natural History Museum of Los Angeles County, Los Angeles, CA 90007, USA.	38069903	34.01681	-118.28833
Informatics Group, Harvard University, Cambridge, MA, USA.	38069903	42.36525	 -71.10501
Biology, Mount Royal University, Calgary, AB T3E 6K6, Canada.	38069903	51.00981	-114.13419
Department of Ecology and Evolutionary Biology, Princeton University, Princeton, NJ, USA.	38069903	40.35528	-74.71444
Center for Statistics and Machine Learning, Princeton University, Princeton, NJ, USA.	38069903	40.35198	-74.66074
State Key Laboratory of Animal Biotech Breeding, China Agricultural University, Beijing CN-100193, China.	38069902	39.90750	116.39723
National Engineering Laboratory for Animal Breeding, China Agricultural University, Beijing CN-100193, China.	38069902	39.90750	116.39723
Yazhouwan National Laboratory, Sanya CN-572024, China.	38069902	18.24306	109.50500
Department of Medical Biochemistry and Microbiology, Uppsala University, Uppsala SE-751 23, Sweden.	38069902	59.84808	 17.66968
Inner Mongolia Academy of Agricultural & Animal Husbandry Sciences, Hohhot CN-010031, China.	38069902	40.81056	111.65222
National Chickens Genetic Resources, Jiangsu Institute of Poultry Science, Yangzhou CN-225125, Jiangsu, China.	38069902	33.00000	119.83333
Department of Integrative Biology, The University of Texas at Austin, Austin, TX 78712, USA.	38069672	30.28617	-97.73806
Institute of Plant Virology, Ningbo University, Ningbo, Zhejiang 315211, China.	38069672	29.87819	 121.5494
Department of Botany and Plant Sciences, University of California Riverside, Riverside, CA 92521, USA.	38069672	33.97587	-117.3312
Department of Pathology, Stanford University School of Medicine, Stanford, CA, USA.	38069639	37.43356	-122.1719
Department of Bioengineering, Stanford University, Stanford, CA, USA.	38069639	37.43356	-122.171926
Present address: Department of Biomedical Informatics, Vanderbilt University School of Medicine, Nashville, TN, USA.	38069639	36.16635	 -86.779054
Institut Pasteur, Université Paris Cité, Archaeal Virology Unit, Paris, France.	38069639	48.86370	   2.361657
National National Center for Biotechnology Information, National Library of Medicine, National Institutes of Health, Bethesda, MD, USA.	38069639	38.98485	 -77.09269
Department of Genetics, Stanford University School of Medicine, Stanford, CA, USA.	38069639	37.43356	-122.17193
School of Biological Sciences, University of Nebraska-Lincoln, Lincoln, NE 68588, USA.	38064674	40.82274	 -96.69995
Department of Agronomy and Horticulture, University of Nebraska-Lincoln, Lincoln, NE 68588, USA.	38064674	40.82274	-96.69995
Institute of Insect Sciences, College of Agriculture and Biotechnology, Zhejiang University, Hangzhou, China.	38061001	30.29365	120.16142
Guangdong Lab for Lingnan Modern Agriculture, Guangzhou, China.	38061001	23.11667	113.25000
Ministry of Agriculture Key Lab of Molecular Biology of Crop Pathogens and Insect Pests, Zhejiang University, Hangzhou, China.	38061001	30.29365	120.1614
Key Laboratory of Biology of Crop Pathogens and Insects of Zhejiang Province, Zhejiang University, Hangzhou, China.	38061001	30.29365	120.1614
State Key Lab of Rice Biology, Zhejiang University, Hangzhou, China.	38061001	30.29365	120.1614
The Rural Development Academy, Zhejiang University, Hangzhou, China.	38061001	30.29365	120.161420
College of Life Sciences, Northwest A&F University, Yangling, Shaanxi, China.	38060983	34.25667	108.078330
CIBIO-InBIO, Research Center in Biodiversity and Genetic Resources, University of Porto, Vairão 4485-661, Portugal.	38059517	41.33516	 -8.663606
BIOPOLIS Program in Genomics, Biodiversity and Land Planning, CIBIO, Vairão 4485-661, Portugal.	38059517	41.33516	-8.663606
Department of Biology, Faculty of Sciences, University of Porto, Porto 4169-007, Portugal.	38059517	41.15441	-8.672000
CIIMAR, Centro Interdisciplinar de Investigação Marinha e Ambiental, Universidade do Porto, Matosinhos, Portugal.	38059517	41.18300	-8.679769
Research Group for Evolutionary Immunogenomics, Max Planck Institute for Evolutionary Biology, Plön, Germany.	38059517	54.24335	 10.363704
Research Unit for Evolutionary Immunogenomics, Department of Biology, University of Hamburg, Hamburg, Germany.	38059517	53.55725	  9.995966
Department of Microbiology and Immunology, University of Maryland School of Medicine, Baltimore, MD, USA.	38059517	39.29044	-76.612333
Ecology, Evolutionary, and Organismal Biology, Iowa State University, Ames, IA, USA.	38039155	 42.02680	-93.62018
Department of Zoology, University of São Paulo, São Paulo, Brazil.	38039155	-22.33466	-49.05848
Department of Entomology and MOA Key Lab of Pest Monitoring and Green Management, College of Plant Protection, China Agricultural University, Beijing 100193, China.	38039153	 25.70628	-99.23968
State Key Laboratory of Protein and Plant Gene Research, School of Life Sciences, Peking University, Beijing 100871, China.	38039153	24.15672	107.48344
College of Life Sciences, Capital Normal University, Beijing 100048, China.	38039153	39.90750	116.39723
Department of Biology, The Pennsylvania State University, University Park, PA 16802, USA.	38039153	40.80454	-77.85853
State Key Laboratory of Herbage Innovation and Grassland Agro-Ecosystem, College of Ecology, Lanzhou University, Lanzhou 730000, China.	38000891	36.47444	103.7332
State Key Laboratory for Animal Disease Control and Prevention, College of Veterinary Medicine, Lanzhou University, Lanzhou Veterinary Research Institute, Chinese Academy of Agricultural Sciences, Lanzhou, China.	38000891	NA	NA
Department of Evolutionary and Environmental Biology, University of Tel-Aviv, Tel-Aviv 6997801, Israel.	38000891	32.10531	 34.7970
Escuela Politecnica Superior de Huesca, Universidad de Zaragoza, Huesca 22071, Spain.	38000891	41.64072	-0.89547
Institute of Evolution, University of Haifa, Haifa 3498838, Israel.	38000891	32.76528	35.01321
Center for Anatomy and Cell Biology, Medical University of Vienna, Vienna, Austria.	37995370	48.20921	16.37278
Natural History Museum Vienna, Central Research Laboratories, Vienna, Austria.	37995370	48.20921	 16.37278
Department for Evolutionary Biology, University of Vienna, Vienna, Austria.	37995370	48.20921	 16.37278
State Key Laboratory of Crop Stress Biology for Arid Areas, Center of Bioinformatics, College of Life Sciences, Northwest A&F University, Yangling, Shaanxi 712100, China.	37995323	34.25667	108.07833
College of Chemistry & Pharmacy, Northwest A&F University, Yangling, Shaanxi 712100, China.	37995323	34.25667	108.07833
Key Laboratory of Biology and Genetics Improvement of Maize in Arid Area of Northwest Region, Ministry of Agriculture, Northwest A&F University, Yangling, Shaanxi 712100, China.	37995323	34.25667	108.07833
Section for Hologenomics, Globe Institute, University of Copenhagen, Copenhagen, Denmark.	37995319	55.67576	 12.56902
Centro de Ciencias Genómicas, Universidad Nacional Autónoma de México, Cuernavaca, México.	37995319	18.98262	-99.234366
Department of Human Genetics, McGill University, Montreal, Quebec, Canada.	37995319	45.50887	-73.554242
School of Environmental Sciences, University of East Anglia, Norwich, UK.	37995319	52.62231	  1.244923
Center for Evolutionary & Organismal Biology, Zhejiang University School of Medicine, Hangzhou, China.	37995319	30.29365	120.1614
Liangzhu Laboratory, Zhejiang University Medical Center, Hangzhou, China.	37995319	30.37930	120.0470
Innovation Center of Yangtze River Delta, Zhejiang University, Jiashan, China.	37995319	30.84918	120.9258
Mahe, Seychelles.	37995319	-4.62001	55.455010
Division of Human and Social Sciences, Durrell Institute of Conservation and Ecology, School of Anthropology and Conservation, University of Kent, Canterbury, Kent, CT2 7NR, UK.	37995319	51.29661	 1.067951
University Museum, NTNU, Trondheim, Norway.	37995319	63.41937	10.402100
The Jackson Laboratory for Genomic Medicine, Farmington, CT, USA.	37995300	41.72654	-72.82506
Department of Agricultural Biotechnology and Research Institute of Agriculture and Life Sciences, Seoul National University, Seoul, Republic of Korea.	37995300	37.56600	126.97840
School of Biological Sciences, Seoul National University, Seoul, Republic of Korea.	37995300	37.56600	126.97840
LiveGene, International Livestock Research Institute (ILRI), Addis Ababa, Ethiopia.	37995300	 9.033138	38.750077
The Centre for Tropical Livestock Genetics and Health (CTLGH), The Roslin Institute, The University of Edinburgh, Midlothian, UK.	37995300	55.950196	-3.187563
School of Life Sciences, University of Nottingham, Nottingham, UK.	37995300	52.940444	-1.179960
Interdisciplinary Program in Bioinformatics, Seoul National University, Seoul, Republic of Korea.	37995300	37.56600	126.9784
eGnome, Inc., Seoul, Republic of Korea.	37995300	37.56600	126.9784
Department of Orthopaedics, The Second Xiangya Hospital, Central South University, Changsha, Hunan 410011, China.	37992195	28.19874	112.9709
Center for Precision Health, School of Biomedical Informatics, The University of Texas Health Science Center at Houston, Houston, TX 77030, USA.	37992195	29.76797	-95.37233
Center for Advanced Parkinson Research, Brigham and Women's Hospital, Harvard Medical School, Boston, MA 02115, USA.	37992195	42.34393	-71.08987
Genomics and Bioinformatics Hub, Department of Neurology, Brigham and Women's Hospital, Harvard Medical School, Boston, MA 02115, USA.	37992195	42.34393	-71.08987
MD Anderson Cancer Center UTHealth Graduate School of Biomedical Sciences, Houston, TX 77030, USA.	37992195	29.70633	-95.404375
Human Genetics Center, School of Public Health, The University of Texas Health Science Center at Houston, Houston, TX 77030, USA.	37992195	29.76797	-95.372331
Department of Genetics and Evolution, University of Geneva, Geneva CH-1205.	37992125	46.19505	  6.143151
Institute of Genetics and Genomics in Geneva (IGE3), University of Geneva, Geneva CH-1205.	37992125	46.19505	 6.143151
Institute of Science and Technology Austria, Klosterneuburg, Austria.	37988296	48.30516	16.324989
Department of Life and Environmental Sciences, Bournemouth University, Poole, UK.	37988296	50.71939	-1.981138
Department of Molecular Biology, Laboratory for Molecular Infection Medicine Sweden, Umeå Centre for Microbial Research, Science for Life Laboratory, Umeå University, Umeå 901 87, Sweden.	37987564	63.80688	 20.272888
Biosciences Institute, Newcastle University School of Medicine, Newcastle upon Tyne NE2 4HH, UK.	37987564	54.98098	 -1.621004
Department of Molecular Medicine and USF Health Byrd Alzheimer's Research Institute, Morsani College of Medicine, University of South Florida, Tampa, FL 33612, USA.	37987564	28.06908	-82.423719
Department of Biology, University of Antwerp, Antwerp, Belgium.	37987559	 51.260721	  4.369584
School of Health and Life Sciences, Pontifical Catholic University of Rio Grande do Sul, Porto Alegre, Brazil.	37987559	-30.056619	-51.172899
Faculty of Exact and Natural Sciences, University of Antioquia, Medellín, Colombia.	37987559	  6.258361	-75.611106
Department of Biological Sciences and Biodiversity, University of Los Lagos, Osorno, Chile.	37987559	-40.57418	-73.13117
Institute of Ecology and Biodiversity, Concepción, Chile.	37987559	-36.81737	-73.06363
Cape Horn International Center, Puerto Williams, Chile.	37987559	-54.93472	-67.61119
Andean Cat Alliance, Villa Carlos Paz, Argentina.	37987559	-31.415406	-64.49421
Department of Biological Sciences, University of Caldas, Manizales, Colombia.	37987559	  5.082881	-75.50615
Centro de Museos, Museo de Historia Natural, University of Caldas, Manizales, Colombia.	37987559	  5.068284	-75.51630
Department of Biology, University of El Rosario, Bogotá, Colombia.	37987559	 4.600379	-74.07315
Veterinary Integrative Biosciences, Texas A&M University, College Station, TX, USA.	37987559	30.627798	-96.33499
Interdisciplinary Program in Genetics & Genomics, Texas A&M University, College Station, TX, USA.	37987559	30.627798	-96.33499
Naturalis Biodiversity Center, Leiden, Netherlands.	37987559	 52.16490	  4.473367
Instituto Pró-Carnívoros, Atibaia, Brazil.	37987559	-23.11766	-46.550929
Ocean EcoSystems Biology Unit, RD3, GEOMAR Helmholtz Centre for Ocean Research, 24148 Kiel, DE.	37987557	 54.31361	 10.164225
Institute of Parasitology, Biology Centre, Czech Academy of Sciences, 370 05 České Budějovice, CZ.	37987557	48.99368	  14.40717
Ocean Sciences Department, University of California Santa Cruz, Santa Cruz, CA 95064, USA.	37987557	36.99956	-122.05764
Joint Genome Institute, Lawrence Berkeley National Laboratory, Berkeley, CA 94720, USA.	37987557	37.87662	-122.25420
Department of Mathematics and Statistics, Dalhousie University, Halifax, Nova Scotia B3H 4R2, CA.	37987557	44.64888	-63.57531
Josephine Bay Paul Center for Comparative Molecular Biology and Evolution, Marine Biological Laboratory, Woods Hole, MA 02543, USA.	37987557	41.52993	-70.66409
Max Planck Institute for Evolutionary Biology, 24306 Plön, DE.	37987557	54.15864	 10.41322
Department of Ecology and Genetics, Animal Ecology, Uppsala University, Uppsala SE-75236, Sweden.	37987553	59.85153	17.622775
School of Biological Sciences, Institute of Ecology and Evolution, University of Edinburgh, Edinburgh, UK.	37987553	55.95020	-3.187563
School of Science, Engineering & Environment, University of Salford, Salford M5 4WT, UK.	37987553	53.48354	-2.270666
Illumina Artificial Intelligence Laboratory, Illumina Inc., Foster City, CA 94404, USA.	37987553	37.556319	-122.26721
Institute of International Animal Health/One Health, Friedrich-Loeffler-Institut, Federal Research Institute for Animal Health, Greifswald - Insel Riems 17493, Germany.	37987553	54.182571	  13.36052
Tanzania National Parks, Arusha, Tanzania.	37987553	-3.371708	  36.69477
Tanzania Wildlife Research Institute (TAWIRI), Arusha, Tanzania.	37987553	-3.371708	36.694765
Department of Natural Sciences, National Museums Scotland, Edinburgh EH1 1JF, UK.	37987553	55.946991	-3.189183
School of Geosciences, University of Edinburgh, Edinburgh EH8 9XP, UK.	37987553	55.935880	-3.316024
Human Genome Sequencing Center and Department of Molecular and Human Genetics, Baylor College of Medicine, Houston, TX 77030, USA.	37987553	29.70633	-95.404375
Institute of Evolutionary Biology (UPF-CSIC), PRBB, Barcelona 08003, Spain.	37987553	41.38566	  2.185081
Institut Català de Paleontologia Miquel Crusafont, Universitat Autònoma de Barcelona, Barcelona, Spain.	37987553	41.38792	  2.169919
Catalan Institution of Research and Advanced Studies (ICREA), Barcelona, Spain.	37987553	41.38792	2.169919
CNAG-CRG, Centre for Genomic Regulation (CRG), Barcelona Institute of Science and Technology (BIST), Barcelona 08028, Spain.	37987553	41.37983	2.114182
Institució Catalana de Recerca i Estudis Avançats (ICREA) and Universitat Pompeu Fabra, Barcelona 08010, Spain.	37987553	41.39142	2.175210
Department of Biological Sciences, Florida Atlantic University, Boca Raton, FL, USA.	37987553	26.37320	-80.10050
Gene Bank of Primates and Primate Genetics Laboratory, German Primate Center, Leibniz Institute for Primate Research, Göttingen 37077, Germany.	37987553	51.56588	  9.93140
Department of Molecular Genetics, Cell Biology and Bionformatics, The Federal Research Center Institute of Cytology and Genetics SB RAS, Novosibirsk 630090, Russia.	37979163	54.84062	 83.10941
Department of Natural Sciences, Novosibirsk State University, Novosibirsk 630090, Russia.	37979163	54.84062	 83.10941
Institut de Biologie Intégrative et des Systèmes (IBIS), Université Laval, Québec, QC, G1V 0A6, Canada.	37979156	46.77854	-71.27329
Département de Biochimie, de Microbiologie et de Bio-informatique, Faculté des Sciences et de Génie, Université Laval, Québec, QC, G1V 0A6, Canada.	37979156	46.77854	-71.27329
Département de Biologie, Faculté des Sciences et de Génie, Université Laval, Québec, QC, G1V 0A6, Canada.	37979156	46.77854	-71.27329
PROTEO, Le regroupement québécois de recherche sur la fonction, l'ingénierie et les applications des protéines, Université Laval, Québec, QC, G1V 0A6, Canada.	37979156	46.77854	-71.27329
Centre de Recherche sur les Données Massives (CRDM), Université Laval, Québec, QC, G1V 0A6, Canada.	37979156	46.77854	-71.27329
Systems Biology Program, Graduate School of Media and Governance, Keio University, Fujisawa, Kanagawa, 252-0882, Japan.	37979156	36.65523	139.27149
Institute for Advanced Biosciences, Keio University, Fujisawa, Kanagawa, 252-0882, Japan.	37979156	35.33890	139.49123
Department of Biological Sciences, Birla Institute of Technology and Science, Pilani K K Birla Goa Campus, South Goa, India.	37979156	15.38761	 73.87594
Information Génomique & Structurale, Unité Mixte de Recherche 7256 (Institut de Microbiologie de la Méditerranée, FR3479), IM2B, IOM, Aix-Marseille University, Centre National de la Recherche Scientifique, Marseille 13288 Cedex 9, France.	37950899	NA	NA
Section for Hologenomics, The Globe Institute, University of Copenhagen, Copenhagen, Denmark.	37950889	55.67576	12.56902
Center for Evolutionary Hologenomics, The Globe Institute, University of Copenhagen, Copenhagen, Denmark.	37950889	55.67576	12.56902
Bird Group, Department of Life Sciences, Natural History Museum, Tring, United Kingdom.	37950889	51.79357	-0.6623063
Department of Biology, University of Copenhagen, Copenhagen, Denmark.	37950889	55.67576	12.5690233
Bioinformatics, Department of Health Technology, Technical University of Denmark, Lyngby, Denmark.	37950889	55.76960	12.5023337
University Museum, Norwegian University of Science and Technology, Trondheim, Norway.	37950889	63.41937	 10.40210
Department of Statistical Science, Duke University, Durham, NC, USA.	37950885	35.99695	-78.89902
Department of Mathematics, School of Science & Engineering, Tulane University, New Orleans, LA, USA.	37950885	29.95176	-90.07462
Department of Biostatistics, Bloomberg School of Public Health, Johns Hopkins University, Baltimore, MD, USA.	37950885	39.29833	 -76.590191
Department of Microbiology, Immunology and Transplantation, Rega Institute, KU Leuven, Leuven, Belgium.	37950885	50.88217	   4.705906
Department of Computational Medicine, University of California, Los Angeles, CA, USA.	37950885	34.05224	-118.243344
Department of Human Genetics, David Geffen School of Medicine, University of California, Los Angeles, CA, USA.	37950885	34.05224	-118.2433
Department of Biostatistics, Jonathan and Karin Fielding School of Public Health, University of California, Los Angeles, CA, USA.	37950885	34.05224	-118.2433
Bellingham Research Institute, Portland, OR, USA.	37948764	45.51602	-122.6814
Department of Biosciences, Durham University, Durham, DH1 3LE, United Kingdom.	37935059	54.76814	-1.571858
Department of Earth Sciences, Uppsala University, Uppsala, 752 36, Sweden.	37935059	59.85153	17.622775
Museum für Naturkunde, Leibniz-Institut für Evolutions- und Biodiversitätsforschung, Berlin, 10115, Germany.	37935059	52.53308	13.377858
Department of Integrative Biology, University of Texas at Austin, Austin, TX, USA.	37935058	30.26498	 -97.74660
Department of Biological Sciences, University of Montreal, Montreal, Canada.	37935058	45.50884	 -73.58781
School of Life Sciences, Arizona State University, Tempe, AZ, USA.	37935058	33.42293	-111.92288
Center for Evolution and Medicine, Arizona State University, Tempe, AZ, USA.	37935058	33.42293	-111.922884
Department of Zoology, Milwaukee Public Museum, Milwaukee, WI, USA.	37935058	43.04107	 -87.909421
Department of Biology, University of Oxford, Oxford OX1 3SZ, UK.	37935057	51.75643	  -1.251518
UK Centre for Ecology & Hydrology, Wallingford OX10 8BB, UK.	37935057	51.60234	  -1.110676
Plant Gene Resources of Canada, Saskatoon Research and Development Centre, Agriculture and Agri-Food Canada, Saskatoon, SK S7N 0X2, Canada.	37931158	52.13392	-106.634935
Biology Department, University of Washington, Seattle, WA 98195, USA.	37931146	47.65451	-122.312104
BEACON Center for the Study of Evolution in Action, East Lansing, MI 48824, USA.	37931146	42.72520	 -84.47945
Department of Neuroscience, Washington University, St.Louis, MO 63110, USA.	37931146	38.61894	 -90.25963
Department of Biological Sciences and Institute for Interdisciplinary Data Sciences, University of Idaho, Moscow, ID 83844, USA.	37931146	46.72821	-117.00688
Laboratory for Statistical and Translational Genetics, RIKEN Center for Integrative Medical Sciences, Yokohama, Japan.	37903429	NA	NA
Clinical Research Center, Shizuoka General Hospital, Shizuoka, Japan.	37903429	35.00326	138.3861
Department of Advanced Genomic and Laboratory Medicine, Graduate School of Medicine, University of the Ryukyus, Nishihara-Cho, Japan.	37903429	NA	NA
Laboratory for Genomics of Diabetes and Metabolism, RIKEN Center for Integrative Medical Sciences, Yokohama, Japan.	37903429	NA	NA
Laboratory for Genotyping Development, RIKEN Center for Integrative Medical Sciences, Yokohama, Japan.	37903429	NA	NA
Core Facility Administration, Research Institute, National Center for Geriatrics and Gerontology, Obu, Japan.	37903429	36.65523	139.2715
Department of Human Biology and Anatomy, Graduate School of Medicine, University of the Ryukyus, Nishihara-Cho, Japan.	37903429	NA	NA
Medical Genome Center, Research Institute, National Center for Geriatrics and Gerontology, Obu, Japan.	37903429	36.65523	139.2715
Division of Clinical Laboratory and Blood Transfusion, University of the Ryukyus Hospital, Okinawa, Japan.	37903429	36.65523	139.2715
The Department of Applied Genetics, School of Pharmaceutical Sciences, University of Shizuoka, Shizuoka, Japan.	37903429	23.31263	  77.3611357
Institute of Neuroscience, University of Oregon, Eugene, OR 97403, USA.	37879119	44.04200	-123.0753360
Wellcome Sanger Institute, Tree of Life, Wellcome Genome Campus, Hinxton CB10 1SA, United Kingdom.	37879119	52.07853	   0.1861349
LOEWE Centre for Translational Biodiversity Genomics, Frankfurt 60325, Germany.	37879119	50.1179	8.663582
Senckenberg Research Institute, Frankfurt 60325, Germany.	37879119	50.1179	8.663582
French Institute of Bioinformatics (IFB)-South Green Bioinformatics Platform, Bioversity, CIRAD, INRAE, IRD, Montpellier, France.	37879113	43.5985	3.896846
IRD, CIRAD, INRAE, Institut Agro, PHIM Plant Health Institute, Montpellier University, Montpellier, France.	37879113	43.59850	3.896846
Université de Lyon, Université Lyon 1, UMR CNRS 5558 Laboratoire de Biométrie et Biologie Évolutive, Villeurbanne, France.	37879113	45.76652	4.879595
Centre de Recherches Inria de Lyon, Villeurbanne, France.	37879113	45.76611	4.879440
CBGP, INRAE, CIRAD, IRD, Montpellier SupAgro, Univ. Montpellier, Montpellier, France.	37879113	43.61130	   3.877100
ISEM, Univ. Montpellier, CNRS, IRD, Montpellier, France.	37879113	43.60786	   3.873629
Department of Biological Sciences, University of Southern California, Los Angeles, CA 90089-0371, USA.	37874344	34.01834	-118.286368
J.Craig Venter Institute, La Jolla, CA 92037, USA.	37874344	 32.84493	-117.254144
Climate Change Cluster, University of Technology Sydney, Sydney, New South Wales 2007, Australia.	37874344	-33.88426	 151.198548
School of Biological Sciences, University of Edinburgh, Edinburgh EH9 3FL, UK.	37874344	 55.92395	  -3.173114
Helmholtz-Zentrum Hereon, 21502 Geesthacht, Germany.	37874344	53.43038	  10.37411
Hubei Key Laboratory of Genetic Regulation & Integrative Biology, School of Life Sciences, Central China Normal University, Wuhan 430079, China.	37863047	25.70628	 -99.23968
Biodesign Center for Mechanisms of Evolution, Arizona State University, Tempe, AZ 85287, USA.	37863047	33.42293	-111.92288
Department of Biological Sciences, University of Notre Dame, Notre Dame, IN 46556, USA.	37863047	41.70321	-86.235247
Department of Immunobiology, Yale School of Medicine, New Haven, CT 06520-8011, USA.	37850912	41.30989	-72.928078
Aix-Marseille Université, IRD, APHM, MEPHI, IHU Méditerranée Infection, Marseille 13005, France.	37850912	43.29750	  5.398591
Institute of Cellular and Organismic Biology, Academia Sinica, Taipei 11529, Taiwan.	37850912	25.04091	121.6174
State Key Laboratory of Biocontrol, Guangdong Key Laboratory of Pharmaceutical Functional Genes, Southern Marine Science and Engineering Guangdong Laboratory (Zhuhai), School of Life Sciences, Sun Yat-sen University, Guangzhou 510275, China.	37850912	NA	NA
Laboratory for Marine Biology and Biotechnology, Qingdao National Laboratory for Marine Science and Technology, Qingdao 266237, China.	37850912	36.06488	120.3804
School of Life Sciences, Beijing University of Chinese Medicine, Beijing 100029, China.	37850912	24.15672	107.483440
Department of Bioinformatics and Structural Biochemistry, Institute of Biochemistry of the Romanian Academy, 060031 Bucharest, Romania.	37850912	44.44578	 26.047343
CNRS SNC 5039, 13005 Marseille, France.	37850912	43.29750	  5.398591
State Key Laboratory of Biocontrol, School of Life Sciences, Sun Yat-Sen University, Guangzhou 510275, China.	37832226	23.11667	113.25000
Department of Ecology and Genetics, Uppsala University, Uppsala, Sweden.	37832225	59.81123	 17.64706
Swedish Collegium of Advanced Study, Uppsala University, Uppsala, Sweden.	37832225	59.81123	 17.64706
Department of Forest Sciences, University of Helsinki, Helsinki, Finland.	37832225	60.16952	24.935450
Viikki Plant Science Centre, University of Helsinki, Helsinki, Finland.	37832225	60.22183	25.023860
Department of Forest Genetics and Forest Tree Breeding, Georg-August-University Goettingen, Goettingen, Germany.	37832225	51.53260	 9.928442
Center of Biodiversity and Sustainable Land Use (CBL), University of Goettingen, Goettingen, Germany.	37832225	51.53260	 9.928442
National Research Institute for Agriculture, Food and the Environment (INRAE), University of Bordeaux, BIOGECO, Cestas, France.	37832225	44.74119	-0.684250
Science for Life Laboratory (SciLifeLab), Uppsala University, Uppsala, Sweden.	37832225	59.81123	17.647060
Department of Biology, Duke University, Durham, NC, USA.	37823438	 35.99695	-78.89902
School of Medical Science, The University of Sydney, Sydney, New South Wales, Australia.	37823438	-33.76831	150.73000
School of Life and Environmental Science, The University of Sydney, Sydney, New South Wales, Australia.	37823438	-33.76831	150.73000
Center for Genomic and Computational Biology, Duke University, Durham, NC, USA.	37823438	35.99695	-78.89902
CAS Key Laboratory of Animal Ecology and Conservation Biology, Institute of Zoology, Chinese Academy of Sciences, Beijing 100101, China.	37823401	39.90750	116.39723
Geneplus-Beijing Institute, Beijing 102206, China.	37823401	24.15672	107.48344
College of Life Sciences, Capital Normal University, Beijing 100049, China.	37823401	39.90750	116.3972
School of Life Sciences, Sun Yat-Sen University, Guangzhou 510275, China.	37823401	23.11667	113.2500
Primate Genetics Laboratory, German Primate Center, Leibniz Institute for Primate Research, Göttingen 37077, Germany.	37823401	51.56588	  9.9314
Key Laboratory of Bio-resources and Eco-environment of Ministry of Education, College of Life Sciences, Sichuan University, Chengdu 610064, China.	37823401	35.12210	105.48032
Gene Bank of Primates, German Primate Center, Leibniz Institute for Primate Research, Göttingen 37077, Germany.	37823401	51.56588	  9.93140
Department of Medical Biochemistry and Microbiology, Uppsala University, Uppsala, Sweden.	37816123	59.85813	 17.64462
Natural History Museum, University of Oslo, Oslo, Norway.	37816123	59.91981	10.771080
Department of Immunology, Genetics and Pathology, Uppsala University, Uppsala, Sweden.	37816123	59.81123	17.647060
Laboratory for Biological Geochemistry, School of Architecture, Civil and Environmental Engineering, École Polytechnique Fédérale de Lausanne (EPFL), Lausanne, Switzerland.	37816123	46.51963	 6.632128
CNRS, Sorbonne Université, FR 2424, ABiMS Platform, Station Biologique de Roscoff, Roscoff, France.	37816123	48.72621	-3.985525
CNRS, UMR 7144, AD2M, Sorbonne Université, Station Biologique de Roscoff, Roscoff, France.	37816123	48.72621	-3.985525
State Key Laboratory for Managing Biotic and Chemical Threats to the Quality and Safety of Agro-products, Key Laboratory of Biotechnology in Plant Protection of Ministry of Agriculture and Zhejiang Province, Institute of Plant Virology, Ningbo University, Ningbo, China.	37804524	NA	NA
Institute of Insect Science, Zhejiang University, Hangzhou, China.	37804524	30.29365	 120.16142
Department of Medical Biochemistry and Microbiology, Uppsala University, SE-75123 Uppsala, Sweden.	37804117	59.84808	  17.66968
Department of Biomolecular Engineering, University of California Santa Cruz, Santa Cruz, CA 95060, USA.	37804117	36.97191	-122.02591
Department of Biological Sciences, Kent State University, Kent, OH 44241, USA.	37804117	41.20284	-81.38109
Key Laboratory for Biodiversity Science and Ecological Engineering, National Demonstration Center for Experimental Life Sciences and Biotechnology Education, College of Life Sciences, Beijing Normal University, 100875 Beijing, China.	37804117	NA	NA
State Key Laboratory of Biocontrol, School of Ecology, Sun Yat-sen University, 510275 Guangzhou, China.	37804117	23.11667	113.25000
Department of Animal Breeding and Genetics, Swedish University of Agricultural Sciences, SE-75007 Uppsala, Sweden.	37804117	59.84808	  17.66968
Division of Immunology and Rheumatology, School of Medicine, Stanford University, Stanford, CA 94305, USA.	37804117	37.42451	-122.16935
Department of Wildlife, Fish and Environmental Studies, Swedish University of Agricultural Sciences, SE-901 83 Umeå, Sweden.	37804117	63.80688	  20.27289
Department of Veterinary Integrative Biosciences, Texas A&M University, College Station, TX 77843, USA.	37804117	30.62780	-96.334986
Computational Molecular Evolution Group, Heidelberg Institute for Theoretical Studies, 69118 Heidelberg, Germany.	37804116	49.42796	  8.749617
Institute of Theoretical Informatics, Karlsruhe Institute of Technology, 76128 Karlsruhe, Germany.	37804116	49.00944	  8.411670
Biodiversity Computing Group, Institute of Computer Science, Foundation for Research and Technology - Hellas, GR - 711 10 Heraklion, Crete, Greece.	37804116	35.28907	25.122525
Université Grenoble Alpes, CNRS, CEA, IBS, F-38000 Grenoble, France.	37797308	45.19253	 5.718057
Laboratoire de Biométrie et Biologie Évolutive, Université Claude Bernard Lyon 1, CNRS, UMR5558, Villeurbanne F-69622, France.	37797308	45.76611	 4.879440
Laboratory of Biomolecular Research, Biology and Chemistry Division, Paul Scherrer Institut, Villigen, Switzerland.	37797308	47.52623	8.214806
Université Grenoble Alpes, CEA, Inserm, IRIG, BGE, Grenoble 38000, France.	37797308	45.19426	5.731669
Laboratoire Evolution et Diversité Biologique (EDB)- IRD-UPS-CNRS, Université Toulouse III, Toulouse, France.	37794645	43.60460	1.444217
Institut des Sciences de l'Évolution de Montpellier (ISEM), Université de Montpellier, CNRS, IRD, Montpellier, France.	37794645	 43.59850	  3.896846
The State Key Laboratory of Protein and Plant Gene Research of Life Sciences, Peking-Tsinghua Center for Life Sciences, Peking University, Beijing, China.	37794645	 39.90750	116.397230
Mammal Research Institute, Department of Zoology & Entomology, University of Pretoria, Pretoria, South Africa.	37794645	-25.74602	 28.187120
Laboratoire de Parasitologie et Ecologie, Faculté des Sciences, Université de Yaoundé I, Yaoundé, Cameroon.	37794645	 3.861768	  11.518750
CIIMAR/CIMAR, Centro Interdisciplinar de Investigação Marinha e Ambiental, Universidade 16 do Porto, Terminal de Cruzeiros do Porto de Leixões, Porto, Portugal.	37794645	41.150986	  -8.568106
Museum of Vertebrate Zoology and Department of Integrative Biology, University of California Berkeley, Berkeley, CA, USA.	37791477	37.869057	-122.270463
Department of Molecular Genetics, University of Toronto, Toronto, Ontario, Canada.	37791477	43.6629950	-79.393547
School of Biomolecular and Biomedical Science, University College Dublin, Belfield, Dublin, Ireland.	37791477	53.3091808	 -6.233707
Museo de Zoología, Facultad de Ciencias Exactas y Naturales, Pontificia Universidad Católica del Ecuador, Quito, Ecuador.	37791477	-0.2101553	-78.492899
Department of Biology, Stanford University, Palo Alto, CA, USA.	37791477	37.43356	-122.17193
Department of Biology, Tufts University, Medford, MA, USA.	37791477	42.41856	 -71.10645
FAS Center for Systems Biology, Harvard University, Cambridge, MA, USA.	37791477	42.36213	 -71.06606
Research Centre on Animal Cognition (CRCA), Centre for Integrative Biology (CBI), UMR5169 CNRS, Toulouse University, Toulouse, France.	37791477	43.604595	  1.444217
Groningen Institute for Evolutionary Life Sciences, University of Groningen, Groningen, The Netherlands.	37791477	53.219962	  6.564934
Departamento de Ciencias Biológicas, Universidad de los Andes, Bogotá, Colombia.	37791477	 4.686395	-74.071267
Department of Zoology, Universidade Federal do Paraná, Curitiba, Brazil.	37791477	-25.45056	-49.233848
Biology Department, Edge Hill University, Ormskirk, United Kingdom.	37791477	 53.55961	 -2.873895
Department of Biological Sciences, University of Pittsburgh, Pittsburgh, PA, USA.	37791477	 40.48047	-79.784553
Department of Integrative Biology, University of Texas at Austin, Austin, TX, USA.	37791477	30.26498	-97.74660
Biodiversity Center, University of Texas at Austin, Austin, TX, USA.	37791477	30.27828	-97.74139
Department of Biological Sciences, St. John's University, New York City, NY, USA.	37791477	40.71305	-74.00723
Centre for Biological Diversity, School of Biology, University of St Andrews, St Andrews, UK.	37789509	56.33940	 -2.795033
Department of Biology, Texas State University, San Marcos, TX, USA.	37789509	29.88906	-97.937394
The Data Analysis Group, School of Life Sciences, University of Dundee, Dundee, UK.	37789509	56.45840	 -2.973675
School of Medicine, University of North Haugh, St Andrews KY16 9TF, UK.	37789509	56.34076	 -2.807820
Instituto de Ecologia, Universidad Nacional Autónoma de México, Ciudad Universitaria, Mexico City CdMx, Mexico.	37789509	19.33252	-99.188278
Univ. Grenoble Alpes, CNRS, UMR 5525, VetAgro Sup, Grenoble INP, TIMC, 38000 Grenoble, France.	37788637	45.19426	  5.731669
Institut Pasteur, Université Paris Cité, CNRS, UMR3525, Microbial Evolutionary Genomics, Paris, France.	37788575	48.86370	2.361657
Collège Doctoral, Sorbonne Université, Paris, France.	37788575	48.84894	2.343085
SMILE Group, Center for Interdisciplinary Research in Biology (CIRB), Collège de France, CNRS, INSERM, Université PSL, Paris, France.	37788575	48.86370	2.361657
Institut Pasteur, Université de Paris Cité, CNRS, UMR6047, Unité EERA, Paris, France.	37788575	48.86370	  2.361657
